ROUTE_ID,STOP_ID,STO_BOX_ID,SRS_REL_STOP,STOP_NAME,DIRECTION,DAYTYPE,TRIPTYPE,HOUR,ONS,OFFS,LEAVE_LOAD
BX36,21245,403667,1,W 178 ST/FT WASHINGTON AV,EB,Weekday,Local,0,14,0,14
BX36,21049,403783,2,WADSWORTH AV/W 181 ST,EB,Weekday,Local,0,12,1,26
BX36,43551,403656,3,W 181 ST/ST NICHOLAS AV,EB,Weekday,Local,0,23,1,48
BX36,43552,403658,4,W 181 ST/AMSTERDAM AV,EB,Weekday,Local,0,15,4,59
BX36,43514,100148,5,UNIVERSITY AV/N OF WASHINGTON BDG,EB,Weekday,Local,0,2,5,54
BX36,21148,100149,6,UNIVERSITY AV/W 174 ST,EB,Weekday,Local,0,1,5,49
BX36,21149,100151,7,UNIVERSITY AV/W 176 ST,EB,Weekday,Local,0,1,3,46
BX36,43515,100152,8,UNIVERSITY AV/W TREMONT AV,EB,Weekday,Local,0,1,8,36
BX36,48661,102357,9,W TREMONT AV/W 177 ST,EB,Weekday,Local,0,2,2,38
BX36,21817,102358,10,W TREMONT AV/DAVIDSON AV,EB,Weekday,Local,0,1,4,32
BX36,48662,102359,11,E TREMONT AV/JEROME AV,EB,Weekday,Local,0,5,5,37
BX36,48663,102361,12,E TREMONT AV/GRAND CONCOURSE,EB,Weekday,Local,0,8,5,41
BX36,21820,102363,13,E TREMONT AV/ANTHONY AV,EB,Weekday,Local,0,3,2,42
BX36,44215,102492,15,E TREMONT AV/3 AV,EB,Weekday,Local,0,2,5,40
BX36,43654,102493,16,E TREMONT AV/ARTHUR AV,EB,Weekday,Local,0,1,4,36
BX36,43721,102494,17,E TREMONT AV/CROTONA AV,EB,Weekday,Local,0,0,3,33
BX36,43656,102495,18,E TREMONT AV/PROSPECT AV,EB,Weekday,Local,0,1,2,32
BX36,43658,102498,20,E TREMONT AV/VYSE AV,EB,Weekday,Local,0,1,3,28
BX36,43659,102499,21,E TREMONT AV/BOSTON RD,EB,Weekday,Local,0,3,2,32
BX36,44218,102566,23,E TREMONT AV/MORRIS PK AV,EB,Weekday,Local,0,3,3,33
BX36,43663,102568,24,E TREMONT AV/COMMONWEALTH AV,EB,Weekday,Local,0,3,2,35
BX36,43665,104104,25,E TREMONT AV/THIERIOT AV,EB,Weekday,Local,0,1,3,30
BX36,8237,103310,26,WHITE PLAINS RD/E TREMONT AV,EB,Weekday,Local,0,1,3,28
BX36,8238,103311,27,WHITE PLAINS RD/ARCHER ST,EB,Weekday,Local,0,4,1,31
BX36,47421,103903,28,WHITE PLAINS RD/WOOD AV,EB,Weekday,Local,0,3,2,32
BX36,47392,102394,29,WHITE PLAINS RD/WESTCHESTER AV,EB,Weekday,Local,0,12,3,39
BX36,8205,102395,30,WHITE PLAINS RD/GLEASON AV,EB,Weekday,Local,0,2,2,39
BX36,8204,102396,31,WHITE PLAINS RD/WATSON AV,EB,Weekday,Local,0,0,2,38
BX36,47419,103701,32,WHITE PLAINS RD/BRUCKNER BL,EB,Weekday,Local,0,1,7,35
BX36,8202,103653,33,WHITE PLAINS RD/STORY AV,EB,Weekday,Local,0,1,9,26
BX36,43843,103355,34,LAFAYETTE AV/WHITE PLAINS RD,EB,Weekday,Local,0,0,10,15
BX36,11102,102401,35,SEWARD AV/PUGSLEY AV,EB,Weekday,Local,0,0,4,11
BX36,11103,102978,36,OLMSTEAD AV/SEWARD AV,EB,Weekday,Local,0,0,14,0
BX36,21245,403667,1,W 178 ST/FT WASHINGTON AV,EB,Weekday,Local,1,5,0,5
BX36,21049,403783,2,WADSWORTH AV/W 181 ST,EB,Weekday,Local,1,4,0,10
BX36,43551,403656,3,W 181 ST/ST NICHOLAS AV,EB,Weekday,Local,1,8,0,18
BX36,43552,403658,4,W 181 ST/AMSTERDAM AV,EB,Weekday,Local,1,4,1,21
BX36,43514,100148,5,UNIVERSITY AV/N OF WASHINGTON BDG,EB,Weekday,Local,1,0,2,16
BX36,21148,100149,6,UNIVERSITY AV/W 174 ST,EB,Weekday,Local,1,1,1,15
BX36,21149,100151,7,UNIVERSITY AV/W 176 ST,EB,Weekday,Local,1,1,1,15
BX36,43515,100152,8,UNIVERSITY AV/W TREMONT AV,EB,Weekday,Local,1,1,1,16
BX36,48661,102357,9,W TREMONT AV/W 177 ST,EB,Weekday,Local,1,0,0,16
BX36,21817,102358,10,W TREMONT AV/DAVIDSON AV,EB,Weekday,Local,1,1,1,16
BX36,48662,102359,11,E TREMONT AV/JEROME AV,EB,Weekday,Local,1,2,2,16
BX36,48663,102361,12,E TREMONT AV/GRAND CONCOURSE,EB,Weekday,Local,1,3,2,18
BX36,21820,102363,13,E TREMONT AV/ANTHONY AV,EB,Weekday,Local,1,2,1,20
BX36,44215,102492,15,E TREMONT AV/3 AV,EB,Weekday,Local,1,1,2,19
BX36,43654,102493,16,E TREMONT AV/ARTHUR AV,EB,Weekday,Local,1,1,3,19
BX36,43721,102494,17,E TREMONT AV/CROTONA AV,EB,Weekday,Local,1,0,3,16
BX36,43656,102495,18,E TREMONT AV/PROSPECT AV,EB,Weekday,Local,1,0,1,15
BX36,43658,102498,20,E TREMONT AV/VYSE AV,EB,Weekday,Local,1,1,1,14
BX36,43659,102499,21,E TREMONT AV/BOSTON RD,EB,Weekday,Local,1,0,2,12
BX36,44218,102566,23,E TREMONT AV/MORRIS PK AV,EB,Weekday,Local,1,2,1,18
BX36,43663,102568,24,E TREMONT AV/COMMONWEALTH AV,EB,Weekday,Local,1,1,1,18
BX36,43665,104104,25,E TREMONT AV/THIERIOT AV,EB,Weekday,Local,1,0,1,19
BX36,8237,103310,26,WHITE PLAINS RD/E TREMONT AV,EB,Weekday,Local,1,0,2,18
BX36,8238,103311,27,WHITE PLAINS RD/ARCHER ST,EB,Weekday,Local,1,2,1,18
BX36,47421,103903,28,WHITE PLAINS RD/WOOD AV,EB,Weekday,Local,1,1,2,18
BX36,47392,102394,29,WHITE PLAINS RD/WESTCHESTER AV,EB,Weekday,Local,1,6,4,21
BX36,8205,102395,30,WHITE PLAINS RD/GLEASON AV,EB,Weekday,Local,1,3,1,23
BX36,8204,102396,31,WHITE PLAINS RD/WATSON AV,EB,Weekday,Local,1,0,2,22
BX36,47419,103701,32,WHITE PLAINS RD/BRUCKNER BL,EB,Weekday,Local,1,0,2,20
BX36,8202,103653,33,WHITE PLAINS RD/STORY AV,EB,Weekday,Local,1,0,5,17
BX36,43843,103355,34,LAFAYETTE AV/WHITE PLAINS RD,EB,Weekday,Local,1,0,8,9
BX36,11102,102401,35,SEWARD AV/PUGSLEY AV,EB,Weekday,Local,1,0,3,7
BX36,11103,102978,36,OLMSTEAD AV/SEWARD AV,EB,Weekday,Local,1,0,7,0
BX36,21245,403667,1,W 178 ST/FT WASHINGTON AV,EB,Weekday,Local,2,2,0,2
BX36,21049,403783,2,WADSWORTH AV/W 181 ST,EB,Weekday,Local,2,1,0,3
BX36,43551,403656,3,W 181 ST/ST NICHOLAS AV,EB,Weekday,Local,2,3,0,6
BX36,43552,403658,4,W 181 ST/AMSTERDAM AV,EB,Weekday,Local,2,1,0,6
BX36,43514,100148,5,UNIVERSITY AV/N OF WASHINGTON BDG,EB,Weekday,Local,2,0,0,6
BX36,21148,100149,6,UNIVERSITY AV/W 174 ST,EB,Weekday,Local,2,0,0,6
BX36,21149,100151,7,UNIVERSITY AV/W 176 ST,EB,Weekday,Local,2,0,0,6
BX36,43515,100152,8,UNIVERSITY AV/W TREMONT AV,EB,Weekday,Local,2,0,0,5
BX36,48661,102357,9,W TREMONT AV/W 177 ST,EB,Weekday,Local,2,0,0,5
BX36,21817,102358,10,W TREMONT AV/DAVIDSON AV,EB,Weekday,Local,2,0,0,5
BX36,48662,102359,11,E TREMONT AV/JEROME AV,EB,Weekday,Local,2,2,0,7
BX36,48663,102361,12,E TREMONT AV/GRAND CONCOURSE,EB,Weekday,Local,2,1,1,8
BX36,21820,102363,13,E TREMONT AV/ANTHONY AV,EB,Weekday,Local,2,0,1,8
BX36,44215,102492,15,E TREMONT AV/3 AV,EB,Weekday,Local,2,1,1,9
BX36,43654,102493,16,E TREMONT AV/ARTHUR AV,EB,Weekday,Local,2,1,1,10
BX36,43721,102494,17,E TREMONT AV/CROTONA AV,EB,Weekday,Local,2,0,1,8
BX36,43656,102495,18,E TREMONT AV/PROSPECT AV,EB,Weekday,Local,2,0,1,8
BX36,43658,102498,20,E TREMONT AV/VYSE AV,EB,Weekday,Local,2,0,1,6
BX36,43659,102499,21,E TREMONT AV/BOSTON RD,EB,Weekday,Local,2,0,1,6
BX36,44218,102566,23,E TREMONT AV/MORRIS PK AV,EB,Weekday,Local,2,0,0,6
BX36,43663,102568,24,E TREMONT AV/COMMONWEALTH AV,EB,Weekday,Local,2,0,1,6
BX36,43665,104104,25,E TREMONT AV/THIERIOT AV,EB,Weekday,Local,2,0,0,6
BX36,8237,103310,26,WHITE PLAINS RD/E TREMONT AV,EB,Weekday,Local,2,0,1,5
BX36,8238,103311,27,WHITE PLAINS RD/ARCHER ST,EB,Weekday,Local,2,1,0,6
BX36,47421,103903,28,WHITE PLAINS RD/WOOD AV,EB,Weekday,Local,2,0,1,6
BX36,47392,102394,29,WHITE PLAINS RD/WESTCHESTER AV,EB,Weekday,Local,2,2,1,7
BX36,8205,102395,30,WHITE PLAINS RD/GLEASON AV,EB,Weekday,Local,2,1,0,9
BX36,8204,102396,31,WHITE PLAINS RD/WATSON AV,EB,Weekday,Local,2,0,0,8
BX36,47419,103701,32,WHITE PLAINS RD/BRUCKNER BL,EB,Weekday,Local,2,0,0,8
BX36,8202,103653,33,WHITE PLAINS RD/STORY AV,EB,Weekday,Local,2,0,1,7
BX36,43843,103355,34,LAFAYETTE AV/WHITE PLAINS RD,EB,Weekday,Local,2,0,2,5
BX36,11102,102401,35,SEWARD AV/PUGSLEY AV,EB,Weekday,Local,2,0,1,4
BX36,11103,102978,36,OLMSTEAD AV/SEWARD AV,EB,Weekday,Local,2,0,3,0
BX36,21245,403667,1,W 178 ST/FT WASHINGTON AV,EB,Weekday,Local,3,3,0,3
BX36,21049,403783,2,WADSWORTH AV/W 181 ST,EB,Weekday,Local,3,2,0,4
BX36,43551,403656,3,W 181 ST/ST NICHOLAS AV,EB,Weekday,Local,3,3,0,6
BX36,43552,403658,4,W 181 ST/AMSTERDAM AV,EB,Weekday,Local,3,1,0,6
BX36,43514,100148,5,UNIVERSITY AV/N OF WASHINGTON BDG,EB,Weekday,Local,3,0,0,6
BX36,21148,100149,6,UNIVERSITY AV/W 174 ST,EB,Weekday,Local,3,0,0,7
BX36,21149,100151,7,UNIVERSITY AV/W 176 ST,EB,Weekday,Local,3,1,0,7
BX36,43515,100152,8,UNIVERSITY AV/W TREMONT AV,EB,Weekday,Local,3,1,0,7
BX36,48661,102357,9,W TREMONT AV/W 177 ST,EB,Weekday,Local,3,0,0,8
BX36,21817,102358,10,W TREMONT AV/DAVIDSON AV,EB,Weekday,Local,3,0,0,8
BX36,48662,102359,11,E TREMONT AV/JEROME AV,EB,Weekday,Local,3,1,0,9
BX36,48663,102361,12,E TREMONT AV/GRAND CONCOURSE,EB,Weekday,Local,3,3,1,11
BX36,21820,102363,13,E TREMONT AV/ANTHONY AV,EB,Weekday,Local,3,2,0,12
BX36,44215,102492,15,E TREMONT AV/3 AV,EB,Weekday,Local,3,1,0,15
BX36,43654,102493,16,E TREMONT AV/ARTHUR AV,EB,Weekday,Local,3,2,0,17
BX36,43721,102494,17,E TREMONT AV/CROTONA AV,EB,Weekday,Local,3,1,0,17
BX36,43656,102495,18,E TREMONT AV/PROSPECT AV,EB,Weekday,Local,3,0,2,15
BX36,43658,102498,20,E TREMONT AV/VYSE AV,EB,Weekday,Local,3,0,2,13
BX36,43659,102499,21,E TREMONT AV/BOSTON RD,EB,Weekday,Local,3,1,2,12
BX36,44218,102566,23,E TREMONT AV/MORRIS PK AV,EB,Weekday,Local,3,0,1,11
BX36,43663,102568,24,E TREMONT AV/COMMONWEALTH AV,EB,Weekday,Local,3,0,1,9
BX36,43665,104104,25,E TREMONT AV/THIERIOT AV,EB,Weekday,Local,3,0,1,9
BX36,8237,103310,26,WHITE PLAINS RD/E TREMONT AV,EB,Weekday,Local,3,0,0,8
BX36,8238,103311,27,WHITE PLAINS RD/ARCHER ST,EB,Weekday,Local,3,1,0,9
BX36,47421,103903,28,WHITE PLAINS RD/WOOD AV,EB,Weekday,Local,3,0,1,9
BX36,47392,102394,29,WHITE PLAINS RD/WESTCHESTER AV,EB,Weekday,Local,3,3,0,11
BX36,8205,102395,30,WHITE PLAINS RD/GLEASON AV,EB,Weekday,Local,3,0,1,11
BX36,8204,102396,31,WHITE PLAINS RD/WATSON AV,EB,Weekday,Local,3,0,0,11
BX36,47419,103701,32,WHITE PLAINS RD/BRUCKNER BL,EB,Weekday,Local,3,0,0,11
BX36,8202,103653,33,WHITE PLAINS RD/STORY AV,EB,Weekday,Local,3,0,2,9
BX36,43843,103355,34,LAFAYETTE AV/WHITE PLAINS RD,EB,Weekday,Local,3,0,3,6
BX36,11102,102401,35,SEWARD AV/PUGSLEY AV,EB,Weekday,Local,3,0,2,5
BX36,11103,102978,36,OLMSTEAD AV/SEWARD AV,EB,Weekday,Local,3,0,5,0
BX36,21245,403667,1,W 178 ST/FT WASHINGTON AV,EB,Weekday,Local,4,4,0,4
BX36,21049,403783,2,WADSWORTH AV/W 181 ST,EB,Weekday,Local,4,3,1,7
BX36,43551,403656,3,W 181 ST/ST NICHOLAS AV,EB,Weekday,Local,4,5,1,11
BX36,43552,403658,4,W 181 ST/AMSTERDAM AV,EB,Weekday,Local,4,5,1,14
BX36,43514,100148,5,UNIVERSITY AV/N OF WASHINGTON BDG,EB,Weekday,Local,4,4,0,17
BX36,21148,100149,6,UNIVERSITY AV/W 174 ST,EB,Weekday,Local,4,2,0,19
BX36,21149,100151,7,UNIVERSITY AV/W 176 ST,EB,Weekday,Local,4,3,0,21
BX36,43515,100152,8,UNIVERSITY AV/W TREMONT AV,EB,Weekday,Local,4,5,1,24
BX36,48661,102357,9,W TREMONT AV/W 177 ST,EB,Weekday,Local,4,4,0,28
BX36,21817,102358,10,W TREMONT AV/DAVIDSON AV,EB,Weekday,Local,4,2,4,26
BX36,48662,102359,11,E TREMONT AV/JEROME AV,EB,Weekday,Local,4,5,3,27
BX36,48663,102361,12,E TREMONT AV/GRAND CONCOURSE,EB,Weekday,Local,4,4,4,26
BX36,21820,102363,13,E TREMONT AV/ANTHONY AV,EB,Weekday,Local,4,1,3,24
BX36,44215,102492,15,E TREMONT AV/3 AV,EB,Weekday,Local,4,2,1,24
BX36,43654,102493,16,E TREMONT AV/ARTHUR AV,EB,Weekday,Local,4,2,1,24
BX36,43721,102494,17,E TREMONT AV/CROTONA AV,EB,Weekday,Local,4,2,1,25
BX36,43656,102495,18,E TREMONT AV/PROSPECT AV,EB,Weekday,Local,4,2,2,25
BX36,43658,102498,20,E TREMONT AV/VYSE AV,EB,Weekday,Local,4,2,4,22
BX36,43659,102499,21,E TREMONT AV/BOSTON RD,EB,Weekday,Local,4,1,4,18
BX36,44218,102566,23,E TREMONT AV/MORRIS PK AV,EB,Weekday,Local,4,1,2,13
BX36,43663,102568,24,E TREMONT AV/COMMONWEALTH AV,EB,Weekday,Local,4,0,1,12
BX36,43665,104104,25,E TREMONT AV/THIERIOT AV,EB,Weekday,Local,4,0,1,11
BX36,8237,103310,26,WHITE PLAINS RD/E TREMONT AV,EB,Weekday,Local,4,0,0,11
BX36,8238,103311,27,WHITE PLAINS RD/ARCHER ST,EB,Weekday,Local,4,1,1,10
BX36,47421,103903,28,WHITE PLAINS RD/WOOD AV,EB,Weekday,Local,4,1,0,10
BX36,47392,102394,29,WHITE PLAINS RD/WESTCHESTER AV,EB,Weekday,Local,4,1,3,8
BX36,8205,102395,30,WHITE PLAINS RD/GLEASON AV,EB,Weekday,Local,4,0,1,7
BX36,8204,102396,31,WHITE PLAINS RD/WATSON AV,EB,Weekday,Local,4,0,0,7
BX36,47419,103701,32,WHITE PLAINS RD/BRUCKNER BL,EB,Weekday,Local,4,0,0,6
BX36,8202,103653,33,WHITE PLAINS RD/STORY AV,EB,Weekday,Local,4,0,2,4
BX36,43843,103355,34,LAFAYETTE AV/WHITE PLAINS RD,EB,Weekday,Local,4,0,2,2
BX36,11102,102401,35,SEWARD AV/PUGSLEY AV,EB,Weekday,Local,4,0,1,1
BX36,11103,102978,36,OLMSTEAD AV/SEWARD AV,EB,Weekday,Local,4,0,2,0
BX36,21245,403667,1,W 178 ST/FT WASHINGTON AV,EB,Weekday,Local,5,14,0,14
BX36,44218,102566,2,E TREMONT AV/MORRIS PK AV,EB,Weekday,Local,5,3,0,6
BX36,21049,403783,2,WADSWORTH AV/W 181 ST,EB,Weekday,Local,5,6,2,18
BX36,43663,102568,3,E TREMONT AV/COMMONWEALTH AV,EB,Weekday,Local,5,4,0,10
BX36,43551,403656,3,W 181 ST/ST NICHOLAS AV,EB,Weekday,Local,5,14,1,30
BX36,43665,104104,4,E TREMONT AV/THIERIOT AV,EB,Weekday,Local,5,2,0,11
BX36,43552,403658,4,W 181 ST/AMSTERDAM AV,EB,Weekday,Local,5,25,1,49
BX36,43514,100148,5,UNIVERSITY AV/N OF WASHINGTON BDG,EB,Weekday,Local,5,10,1,54
BX36,8237,103310,5,WHITE PLAINS RD/E TREMONT AV,EB,Weekday,Local,5,3,1,13
BX36,21148,100149,6,UNIVERSITY AV/W 174 ST,EB,Weekday,Local,5,7,1,58
BX36,8238,103311,6,WHITE PLAINS RD/ARCHER ST,EB,Weekday,Local,5,5,3,14
BX36,21149,100151,7,UNIVERSITY AV/W 176 ST,EB,Weekday,Local,5,7,1,61
BX36,47421,103903,7,WHITE PLAINS RD/WOOD AV,EB,Weekday,Local,5,2,3,15
BX36,43515,100152,8,UNIVERSITY AV/W TREMONT AV,EB,Weekday,Local,5,16,3,72
BX36,47392,102394,8,WHITE PLAINS RD/WESTCHESTER AV,EB,Weekday,Local,5,6,8,13
BX36,48661,102357,9,W TREMONT AV/W 177 ST,EB,Weekday,Local,5,7,1,75
BX36,8205,102395,9,WHITE PLAINS RD/GLEASON AV,EB,Weekday,Local,5,3,1,13
BX36,21817,102358,10,W TREMONT AV/DAVIDSON AV,EB,Weekday,Local,5,2,5,70
BX36,8204,102396,10,WHITE PLAINS RD/WATSON AV,EB,Weekday,Local,5,0,2,11
BX36,48662,102359,11,E TREMONT AV/JEROME AV,EB,Weekday,Local,5,9,8,71
BX36,47419,103701,11,WHITE PLAINS RD/BRUCKNER BL,EB,Weekday,Local,5,0,3,8
BX36,48663,102361,12,E TREMONT AV/GRAND CONCOURSE,EB,Weekday,Local,5,11,9,68
BX36,8202,103653,12,WHITE PLAINS RD/STORY AV,EB,Weekday,Local,5,1,3,5
BX36,21820,102363,13,E TREMONT AV/ANTHONY AV,EB,Weekday,Local,5,6,4,66
BX36,43843,103355,13,LAFAYETTE AV/WHITE PLAINS RD,EB,Weekday,Local,5,0,2,3
BX36,11102,102401,14,SEWARD AV/PUGSLEY AV,EB,Weekday,Local,5,0,1,2
BX36,44215,102492,15,E TREMONT AV/3 AV,EB,Weekday,Local,5,9,4,64
BX36,11103,102978,15,OLMSTEAD AV/SEWARD AV,EB,Weekday,Local,5,0,2,0
BX36,43654,102493,16,E TREMONT AV/ARTHUR AV,EB,Weekday,Local,5,5,2,65
BX36,43721,102494,17,E TREMONT AV/CROTONA AV,EB,Weekday,Local,5,4,3,65
BX36,43656,102495,18,E TREMONT AV/PROSPECT AV,EB,Weekday,Local,5,6,4,64
BX36,43658,102498,20,E TREMONT AV/VYSE AV,EB,Weekday,Local,5,3,10,51
BX36,43659,102499,21,E TREMONT AV/BOSTON RD,EB,Weekday,Local,5,1,11,39
BX36,44218,102566,23,E TREMONT AV/MORRIS PK AV,EB,Weekday,Local,5,1,3,27
BX36,43663,102568,24,E TREMONT AV/COMMONWEALTH AV,EB,Weekday,Local,5,0,3,24
BX36,43665,104104,25,E TREMONT AV/THIERIOT AV,EB,Weekday,Local,5,0,1,23
BX36,8237,103310,26,WHITE PLAINS RD/E TREMONT AV,EB,Weekday,Local,5,0,1,22
BX36,8238,103311,27,WHITE PLAINS RD/ARCHER ST,EB,Weekday,Local,5,2,2,22
BX36,47421,103903,28,WHITE PLAINS RD/WOOD AV,EB,Weekday,Local,5,0,1,21
BX36,47392,102394,29,WHITE PLAINS RD/WESTCHESTER AV,EB,Weekday,Local,5,2,5,17
BX36,8205,102395,30,WHITE PLAINS RD/GLEASON AV,EB,Weekday,Local,5,0,1,16
BX36,8204,102396,31,WHITE PLAINS RD/WATSON AV,EB,Weekday,Local,5,0,1,14
BX36,47419,103701,32,WHITE PLAINS RD/BRUCKNER BL,EB,Weekday,Local,5,0,2,12
BX36,8202,103653,33,WHITE PLAINS RD/STORY AV,EB,Weekday,Local,5,0,3,9
BX36,43843,103355,34,LAFAYETTE AV/WHITE PLAINS RD,EB,Weekday,Local,5,0,4,5
BX36,11102,102401,35,SEWARD AV/PUGSLEY AV,EB,Weekday,Local,5,0,1,3
BX36,11103,102978,36,OLMSTEAD AV/SEWARD AV,EB,Weekday,Local,5,0,3,0
BX36,21245,403667,1,W 178 ST/FT WASHINGTON AV,EB,Weekday,Local,6,45,0,45
BX36,21245,403667,1,W 178 ST/FT WASHINGTON AV,EB,Weekday,Limited,6,25,0,25
BX36,44218,102566,2,E TREMONT AV/MORRIS PK AV,EB,Weekday,Local,6,0,0,0
BX36,21049,403783,2,WADSWORTH AV/W 181 ST,EB,Weekday,Local,6,22,5,62
BX36,21049,403783,2,WADSWORTH AV/W 181 ST,EB,Weekday,Limited,6,5,1,27
BX36,43663,102568,3,E TREMONT AV/COMMONWEALTH AV,EB,Weekday,Local,6,0,0,0
BX36,43551,403656,3,W 181 ST/ST NICHOLAS AV,EB,Weekday,Local,6,31,5,88
BX36,43551,403656,3,W 181 ST/ST NICHOLAS AV,EB,Weekday,Limited,6,14,1,39
BX36,43665,104104,4,E TREMONT AV/THIERIOT AV,EB,Weekday,Local,6,0,0,0
BX36,43552,403658,4,W 181 ST/AMSTERDAM AV,EB,Weekday,Local,6,35,6,119
BX36,43552,403658,4,W 181 ST/AMSTERDAM AV,EB,Weekday,Limited,6,16,2,48
BX36,43514,100148,5,UNIVERSITY AV/N OF WASHINGTON BDG,EB,Weekday,Local,6,17,4,131
BX36,8237,103310,5,WHITE PLAINS RD/E TREMONT AV,EB,Weekday,Local,6,0,0,0
BX36,21148,100149,5,UNIVERSITY AV/W 174 ST,EB,Weekday,Limited,6,12,2,49
BX36,21148,100149,6,UNIVERSITY AV/W 174 ST,EB,Weekday,Local,6,17,3,144
BX36,8238,103311,6,WHITE PLAINS RD/ARCHER ST,EB,Weekday,Local,6,0,0,0
BX36,43515,100152,6,UNIVERSITY AV/W TREMONT AV,EB,Weekday,Limited,6,16,4,54
BX36,21149,100151,7,UNIVERSITY AV/W 176 ST,EB,Weekday,Local,6,17,3,158
BX36,47421,103903,7,WHITE PLAINS RD/WOOD AV,EB,Weekday,Local,6,0,0,0
BX36,48662,102359,7,E TREMONT AV/JEROME AV,EB,Weekday,Limited,6,18,6,61
BX36,43515,100152,8,UNIVERSITY AV/W TREMONT AV,EB,Weekday,Local,6,30,10,175
BX36,47392,102394,8,WHITE PLAINS RD/WESTCHESTER AV,EB,Weekday,Local,6,0,0,1
BX36,48663,102361,8,E TREMONT AV/GRAND CONCOURSE,EB,Weekday,Limited,6,16,11,58
BX36,48661,102357,9,W TREMONT AV/W 177 ST,EB,Weekday,Local,6,15,4,184
BX36,8205,102395,9,WHITE PLAINS RD/GLEASON AV,EB,Weekday,Local,6,0,0,1
BX36,21817,102358,10,W TREMONT AV/DAVIDSON AV,EB,Weekday,Local,6,4,14,174
BX36,8204,102396,10,WHITE PLAINS RD/WATSON AV,EB,Weekday,Local,6,0,0,1
BX36,48662,102359,11,E TREMONT AV/JEROME AV,EB,Weekday,Local,6,34,13,193
BX36,47419,103701,11,WHITE PLAINS RD/BRUCKNER BL,EB,Weekday,Local,6,0,0,1
BX36,48663,102361,12,E TREMONT AV/GRAND CONCOURSE,EB,Weekday,Local,6,40,28,198
BX36,8202,103653,12,WHITE PLAINS RD/STORY AV,EB,Weekday,Local,6,0,0,1
BX36,21820,102363,13,E TREMONT AV/ANTHONY AV,EB,Weekday,Local,6,17,15,197
BX36,43843,103355,13,LAFAYETTE AV/WHITE PLAINS RD,EB,Weekday,Local,6,0,1,0
BX36,11102,102401,14,SEWARD AV/PUGSLEY AV,EB,Weekday,Local,6,0,0,0
BX36,44215,102492,15,E TREMONT AV/3 AV,EB,Weekday,Local,6,16,15,198
BX36,11103,102978,15,OLMSTEAD AV/SEWARD AV,EB,Weekday,Local,6,0,0,0
BX36,43654,102493,16,E TREMONT AV/ARTHUR AV,EB,Weekday,Local,6,8,12,190
BX36,43721,102494,17,E TREMONT AV/CROTONA AV,EB,Weekday,Local,6,12,13,187
BX36,43656,102495,18,E TREMONT AV/PROSPECT AV,EB,Weekday,Local,6,12,8,188
BX36,43658,102498,20,E TREMONT AV/VYSE AV,EB,Weekday,Local,6,5,21,167
BX36,43659,102499,21,E TREMONT AV/BOSTON RD,EB,Weekday,Local,6,6,30,141
BX36,44218,102566,23,E TREMONT AV/MORRIS PK AV,EB,Weekday,Local,6,5,16,108
BX36,43663,102568,24,E TREMONT AV/COMMONWEALTH AV,EB,Weekday,Local,6,5,8,101
BX36,43665,104104,25,E TREMONT AV/THIERIOT AV,EB,Weekday,Local,6,2,6,97
BX36,8237,103310,26,WHITE PLAINS RD/E TREMONT AV,EB,Weekday,Local,6,9,8,95
BX36,8238,103311,27,WHITE PLAINS RD/ARCHER ST,EB,Weekday,Local,6,12,9,95
BX36,47421,103903,28,WHITE PLAINS RD/WOOD AV,EB,Weekday,Local,6,4,12,85
BX36,47392,102394,29,WHITE PLAINS RD/WESTCHESTER AV,EB,Weekday,Local,6,18,23,78
BX36,8205,102395,30,WHITE PLAINS RD/GLEASON AV,EB,Weekday,Local,6,2,9,69
BX36,8204,102396,31,WHITE PLAINS RD/WATSON AV,EB,Weekday,Local,6,1,5,63
BX36,47419,103701,32,WHITE PLAINS RD/BRUCKNER BL,EB,Weekday,Local,6,0,9,53
BX36,8202,103653,33,WHITE PLAINS RD/STORY AV,EB,Weekday,Local,6,2,17,37
BX36,43843,103355,34,LAFAYETTE AV/WHITE PLAINS RD,EB,Weekday,Local,6,0,19,17
BX36,11102,102401,35,SEWARD AV/PUGSLEY AV,EB,Weekday,Local,6,0,7,10
BX36,11103,102978,36,OLMSTEAD AV/SEWARD AV,EB,Weekday,Local,6,0,10,0
BX36,21245,403667,1,W 178 ST/FT WASHINGTON AV,EB,Weekday,Local,7,30,0,30
BX36,21245,403667,1,W 178 ST/FT WASHINGTON AV,EB,Weekday,Limited,7,72,0,72
BX36,21049,403783,2,WADSWORTH AV/W 181 ST,EB,Weekday,Local,7,14,3,41
BX36,21049,403783,2,WADSWORTH AV/W 181 ST,EB,Weekday,Limited,7,34,7,99
BX36,43551,403656,3,W 181 ST/ST NICHOLAS AV,EB,Weekday,Local,7,24,2,64
BX36,43551,403656,3,W 181 ST/ST NICHOLAS AV,EB,Weekday,Limited,7,56,8,147
BX36,43552,403658,4,W 181 ST/AMSTERDAM AV,EB,Weekday,Local,7,27,3,88
BX36,43552,403658,4,W 181 ST/AMSTERDAM AV,EB,Weekday,Limited,7,43,12,178
BX36,43514,100148,5,UNIVERSITY AV/N OF WASHINGTON BDG,EB,Weekday,Local,7,20,5,103
BX36,21148,100149,5,UNIVERSITY AV/W 174 ST,EB,Weekday,Limited,7,55,10,217
BX36,21148,100149,6,UNIVERSITY AV/W 174 ST,EB,Weekday,Local,7,18,6,109
BX36,43515,100152,6,UNIVERSITY AV/W TREMONT AV,EB,Weekday,Limited,7,75,24,259
BX36,21149,100151,7,UNIVERSITY AV/W 176 ST,EB,Weekday,Local,7,13,4,121
BX36,48662,102359,7,E TREMONT AV/JEROME AV,EB,Weekday,Limited,7,62,34,277
BX36,43515,100152,8,UNIVERSITY AV/W TREMONT AV,EB,Weekday,Local,7,38,13,145
BX36,48663,102361,8,E TREMONT AV/GRAND CONCOURSE,EB,Weekday,Limited,7,89,45,315
BX36,48661,102357,9,W TREMONT AV/W 177 ST,EB,Weekday,Local,7,20,6,156
BX36,21817,102358,10,W TREMONT AV/DAVIDSON AV,EB,Weekday,Local,7,6,12,149
BX36,44215,102492,10,E TREMONT AV/3 AV,EB,Weekday,Limited,7,43,79,309
BX36,48662,102359,11,E TREMONT AV/JEROME AV,EB,Weekday,Local,7,35,13,170
BX36,43721,102494,11,E TREMONT AV/CROTONA AV,EB,Weekday,Limited,7,36,59,273
BX36,48663,102361,12,E TREMONT AV/GRAND CONCOURSE,EB,Weekday,Local,7,47,24,196
BX36,21820,102363,13,E TREMONT AV/ANTHONY AV,EB,Weekday,Local,7,13,16,193
BX36,8237,103310,14,WHITE PLAINS RD/E TREMONT AV,EB,Weekday,Limited,7,18,29,141
BX36,44215,102492,15,E TREMONT AV/3 AV,EB,Weekday,Local,7,25,28,179
BX36,47392,102394,15,WHITE PLAINS RD/WESTCHESTER AV,EB,Weekday,Limited,7,64,44,147
BX36,43654,102493,16,E TREMONT AV/ARTHUR AV,EB,Weekday,Local,7,15,17,177
BX36,8202,103653,16,WHITE PLAINS RD/STORY AV,EB,Weekday,Limited,7,1,42,85
BX36,43721,102494,17,E TREMONT AV/CROTONA AV,EB,Weekday,Local,7,16,19,175
BX36,43843,103355,17,LAFAYETTE AV/WHITE PLAINS RD,EB,Weekday,Limited,7,1,44,37
BX36,43656,102495,18,E TREMONT AV/PROSPECT AV,EB,Weekday,Local,7,11,13,175
BX36,11102,102401,18,SEWARD AV/PUGSLEY AV,EB,Weekday,Limited,7,0,18,17
BX36,11103,102978,19,OLMSTEAD AV/SEWARD AV,EB,Weekday,Limited,7,0,17,0
BX36,43658,102498,20,E TREMONT AV/VYSE AV,EB,Weekday,Local,7,6,21,155
BX36,43659,102499,21,E TREMONT AV/BOSTON RD,EB,Weekday,Local,7,5,30,129
BX36,44218,102566,23,E TREMONT AV/MORRIS PK AV,EB,Weekday,Local,7,5,14,111
BX36,43663,102568,24,E TREMONT AV/COMMONWEALTH AV,EB,Weekday,Local,7,7,9,111
BX36,43665,104104,25,E TREMONT AV/THIERIOT AV,EB,Weekday,Local,7,3,7,108
BX36,8237,103310,26,WHITE PLAINS RD/E TREMONT AV,EB,Weekday,Local,7,11,11,110
BX36,8238,103311,27,WHITE PLAINS RD/ARCHER ST,EB,Weekday,Local,7,15,12,115
BX36,47421,103903,28,WHITE PLAINS RD/WOOD AV,EB,Weekday,Local,7,9,10,114
BX36,47392,102394,29,WHITE PLAINS RD/WESTCHESTER AV,EB,Weekday,Local,7,49,26,138
BX36,8205,102395,30,WHITE PLAINS RD/GLEASON AV,EB,Weekday,Local,7,6,9,137
BX36,8204,102396,31,WHITE PLAINS RD/WATSON AV,EB,Weekday,Local,7,2,7,132
BX36,47419,103701,32,WHITE PLAINS RD/BRUCKNER BL,EB,Weekday,Local,7,2,17,117
BX36,8202,103653,33,WHITE PLAINS RD/STORY AV,EB,Weekday,Local,7,3,37,82
BX36,43843,103355,34,LAFAYETTE AV/WHITE PLAINS RD,EB,Weekday,Local,7,2,46,38
BX36,11102,102401,35,SEWARD AV/PUGSLEY AV,EB,Weekday,Local,7,0,15,22
BX36,11103,102978,36,OLMSTEAD AV/SEWARD AV,EB,Weekday,Local,7,0,22,0
BX36,21245,403667,1,W 178 ST/FT WASHINGTON AV,EB,Weekday,Local,8,50,0,50
BX36,21245,403667,1,W 178 ST/FT WASHINGTON AV,EB,Weekday,Limited,8,55,0,55
BX36,21049,403783,2,WADSWORTH AV/W 181 ST,EB,Weekday,Local,8,19,4,65
BX36,21049,403783,2,WADSWORTH AV/W 181 ST,EB,Weekday,Limited,8,31,4,85
BX36,43551,403656,3,W 181 ST/ST NICHOLAS AV,EB,Weekday,Local,8,40,4,100
BX36,43551,403656,3,W 181 ST/ST NICHOLAS AV,EB,Weekday,Limited,8,43,5,124
BX36,43552,403658,4,W 181 ST/AMSTERDAM AV,EB,Weekday,Local,8,38,6,124
BX36,43552,403658,4,W 181 ST/AMSTERDAM AV,EB,Weekday,Limited,8,42,11,159
BX36,43514,100148,5,UNIVERSITY AV/N OF WASHINGTON BDG,EB,Weekday,Local,8,30,7,147
BX36,21148,100149,5,UNIVERSITY AV/W 174 ST,EB,Weekday,Limited,8,40,12,186
BX36,21148,100149,6,UNIVERSITY AV/W 174 ST,EB,Weekday,Local,8,24,6,163
BX36,43515,100152,6,UNIVERSITY AV/W TREMONT AV,EB,Weekday,Limited,8,54,28,222
BX36,21149,100151,7,UNIVERSITY AV/W 176 ST,EB,Weekday,Local,8,16,7,176
BX36,48662,102359,7,E TREMONT AV/JEROME AV,EB,Weekday,Limited,8,43,27,244
BX36,43515,100152,8,UNIVERSITY AV/W TREMONT AV,EB,Weekday,Local,8,34,15,198
BX36,48663,102361,8,E TREMONT AV/GRAND CONCOURSE,EB,Weekday,Limited,8,68,48,264
BX36,48661,102357,9,W TREMONT AV/W 177 ST,EB,Weekday,Local,8,16,6,209
BX36,21817,102358,10,W TREMONT AV/DAVIDSON AV,EB,Weekday,Local,8,5,19,196
BX36,44215,102492,10,E TREMONT AV/3 AV,EB,Weekday,Limited,8,19,53,226
BX36,48662,102359,11,E TREMONT AV/JEROME AV,EB,Weekday,Local,8,39,17,219
BX36,43721,102494,11,E TREMONT AV/CROTONA AV,EB,Weekday,Limited,8,19,43,206
BX36,48663,102361,12,E TREMONT AV/GRAND CONCOURSE,EB,Weekday,Local,8,53,29,242
BX36,21820,102363,13,E TREMONT AV/ANTHONY AV,EB,Weekday,Local,8,18,28,233
BX36,8237,103310,14,WHITE PLAINS RD/E TREMONT AV,EB,Weekday,Limited,8,13,40,139
BX36,44215,102492,15,E TREMONT AV/3 AV,EB,Weekday,Local,8,16,29,213
BX36,47392,102394,15,WHITE PLAINS RD/WESTCHESTER AV,EB,Weekday,Limited,8,48,48,144
BX36,43654,102493,16,E TREMONT AV/ARTHUR AV,EB,Weekday,Local,8,16,23,204
BX36,8202,103653,16,WHITE PLAINS RD/STORY AV,EB,Weekday,Limited,8,3,53,113
BX36,43721,102494,17,E TREMONT AV/CROTONA AV,EB,Weekday,Local,8,14,26,187
BX36,43843,103355,17,LAFAYETTE AV/WHITE PLAINS RD,EB,Weekday,Limited,8,2,57,62
BX36,43656,102495,18,E TREMONT AV/PROSPECT AV,EB,Weekday,Local,8,12,16,183
BX36,11102,102401,18,SEWARD AV/PUGSLEY AV,EB,Weekday,Limited,8,0,32,31
BX36,11103,102978,19,OLMSTEAD AV/SEWARD AV,EB,Weekday,Limited,8,0,31,0
BX36,43658,102498,20,E TREMONT AV/VYSE AV,EB,Weekday,Local,8,8,23,165
BX36,43659,102499,21,E TREMONT AV/BOSTON RD,EB,Weekday,Local,8,6,32,138
BX36,44218,102566,23,E TREMONT AV/MORRIS PK AV,EB,Weekday,Local,8,4,13,133
BX36,43663,102568,24,E TREMONT AV/COMMONWEALTH AV,EB,Weekday,Local,8,5,11,127
BX36,43665,104104,25,E TREMONT AV/THIERIOT AV,EB,Weekday,Local,8,2,10,117
BX36,8237,103310,26,WHITE PLAINS RD/E TREMONT AV,EB,Weekday,Local,8,6,11,110
BX36,8238,103311,27,WHITE PLAINS RD/ARCHER ST,EB,Weekday,Local,8,10,12,108
BX36,47421,103903,28,WHITE PLAINS RD/WOOD AV,EB,Weekday,Local,8,5,12,104
BX36,47392,102394,29,WHITE PLAINS RD/WESTCHESTER AV,EB,Weekday,Local,8,32,27,107
BX36,8205,102395,30,WHITE PLAINS RD/GLEASON AV,EB,Weekday,Local,8,5,9,106
BX36,8204,102396,31,WHITE PLAINS RD/WATSON AV,EB,Weekday,Local,8,2,6,102
BX36,47419,103701,32,WHITE PLAINS RD/BRUCKNER BL,EB,Weekday,Local,8,2,15,88
BX36,8202,103653,33,WHITE PLAINS RD/STORY AV,EB,Weekday,Local,8,3,26,66
BX36,43843,103355,34,LAFAYETTE AV/WHITE PLAINS RD,EB,Weekday,Local,8,2,37,30
BX36,11102,102401,35,SEWARD AV/PUGSLEY AV,EB,Weekday,Local,8,0,16,15
BX36,11103,102978,36,OLMSTEAD AV/SEWARD AV,EB,Weekday,Local,8,0,16,0
BX36,21245,403667,1,W 178 ST/FT WASHINGTON AV,EB,Weekday,Local,9,41,0,41
BX36,21245,403667,1,W 178 ST/FT WASHINGTON AV,EB,Weekday,Limited,9,18,0,18
BX36,21049,403783,2,WADSWORTH AV/W 181 ST,EB,Weekday,Local,9,18,4,56
BX36,21049,403783,2,WADSWORTH AV/W 181 ST,EB,Weekday,Limited,9,12,0,30
BX36,43551,403656,3,W 181 ST/ST NICHOLAS AV,EB,Weekday,Local,9,35,2,89
BX36,43551,403656,3,W 181 ST/ST NICHOLAS AV,EB,Weekday,Limited,9,15,1,44
BX36,43552,403658,4,W 181 ST/AMSTERDAM AV,EB,Weekday,Local,9,32,5,124
BX36,43552,403658,4,W 181 ST/AMSTERDAM AV,EB,Weekday,Limited,9,11,4,51
BX36,43514,100148,5,UNIVERSITY AV/N OF WASHINGTON BDG,EB,Weekday,Local,9,14,6,127
BX36,21148,100149,5,UNIVERSITY AV/W 174 ST,EB,Weekday,Limited,9,14,6,65
BX36,21148,100149,6,UNIVERSITY AV/W 174 ST,EB,Weekday,Local,9,20,6,144
BX36,43515,100152,6,UNIVERSITY AV/W TREMONT AV,EB,Weekday,Limited,9,17,10,75
BX36,21149,100151,7,UNIVERSITY AV/W 176 ST,EB,Weekday,Local,9,17,6,154
BX36,48662,102359,7,E TREMONT AV/JEROME AV,EB,Weekday,Limited,9,22,10,94
BX36,43515,100152,8,UNIVERSITY AV/W TREMONT AV,EB,Weekday,Local,9,29,13,171
BX36,48663,102361,8,E TREMONT AV/GRAND CONCOURSE,EB,Weekday,Limited,9,29,21,106
BX36,48661,102357,9,W TREMONT AV/W 177 ST,EB,Weekday,Local,9,18,9,182
BX36,21817,102358,10,W TREMONT AV/DAVIDSON AV,EB,Weekday,Local,9,8,16,172
BX36,44215,102492,10,E TREMONT AV/3 AV,EB,Weekday,Limited,9,12,20,103
BX36,48662,102359,11,E TREMONT AV/JEROME AV,EB,Weekday,Local,9,39,19,193
BX36,43721,102494,11,E TREMONT AV/CROTONA AV,EB,Weekday,Limited,9,9,20,96
BX36,48663,102361,12,E TREMONT AV/GRAND CONCOURSE,EB,Weekday,Local,9,38,33,200
BX36,21820,102363,13,E TREMONT AV/ANTHONY AV,EB,Weekday,Local,9,15,21,193
BX36,8237,103310,14,WHITE PLAINS RD/E TREMONT AV,EB,Weekday,Limited,9,6,16,69
BX36,44215,102492,15,E TREMONT AV/3 AV,EB,Weekday,Local,9,18,26,192
BX36,47392,102394,15,WHITE PLAINS RD/WESTCHESTER AV,EB,Weekday,Limited,9,24,27,72
BX36,43654,102493,16,E TREMONT AV/ARTHUR AV,EB,Weekday,Local,9,10,18,187
BX36,8202,103653,16,WHITE PLAINS RD/STORY AV,EB,Weekday,Limited,9,2,29,56
BX36,43721,102494,17,E TREMONT AV/CROTONA AV,EB,Weekday,Local,9,14,24,180
BX36,43843,103355,17,LAFAYETTE AV/WHITE PLAINS RD,EB,Weekday,Limited,9,2,27,31
BX36,43656,102495,18,E TREMONT AV/PROSPECT AV,EB,Weekday,Local,9,11,18,175
BX36,11102,102401,18,SEWARD AV/PUGSLEY AV,EB,Weekday,Limited,9,0,14,18
BX36,11103,102978,19,OLMSTEAD AV/SEWARD AV,EB,Weekday,Limited,9,0,18,0
BX36,43658,102498,20,E TREMONT AV/VYSE AV,EB,Weekday,Local,9,4,23,154
BX36,43659,102499,21,E TREMONT AV/BOSTON RD,EB,Weekday,Local,9,7,28,133
BX36,44218,102566,23,E TREMONT AV/MORRIS PK AV,EB,Weekday,Local,9,4,14,118
BX36,43663,102568,24,E TREMONT AV/COMMONWEALTH AV,EB,Weekday,Local,9,5,9,114
BX36,43665,104104,25,E TREMONT AV/THIERIOT AV,EB,Weekday,Local,9,1,7,106
BX36,8237,103310,26,WHITE PLAINS RD/E TREMONT AV,EB,Weekday,Local,9,6,11,103
BX36,8238,103311,27,WHITE PLAINS RD/ARCHER ST,EB,Weekday,Local,9,9,9,104
BX36,47421,103903,28,WHITE PLAINS RD/WOOD AV,EB,Weekday,Local,9,5,10,100
BX36,47392,102394,29,WHITE PLAINS RD/WESTCHESTER AV,EB,Weekday,Local,9,28,21,109
BX36,8205,102395,30,WHITE PLAINS RD/GLEASON AV,EB,Weekday,Local,9,3,10,102
BX36,8204,102396,31,WHITE PLAINS RD/WATSON AV,EB,Weekday,Local,9,1,8,93
BX36,47419,103701,32,WHITE PLAINS RD/BRUCKNER BL,EB,Weekday,Local,9,1,13,81
BX36,8202,103653,33,WHITE PLAINS RD/STORY AV,EB,Weekday,Local,9,1,25,56
BX36,43843,103355,34,LAFAYETTE AV/WHITE PLAINS RD,EB,Weekday,Local,9,1,28,28
BX36,11102,102401,35,SEWARD AV/PUGSLEY AV,EB,Weekday,Local,9,0,14,14
BX36,11103,102978,36,OLMSTEAD AV/SEWARD AV,EB,Weekday,Local,9,0,14,0
BX36,21245,403667,1,W 178 ST/FT WASHINGTON AV,EB,Weekday,Local,10,44,0,44
BX36,21245,403667,1,W 178 ST/FT WASHINGTON AV,EB,Weekday,Limited,10,3,0,3
BX36,21049,403783,2,WADSWORTH AV/W 181 ST,EB,Weekday,Local,10,29,2,71
BX36,21049,403783,2,WADSWORTH AV/W 181 ST,EB,Weekday,Limited,10,2,0,5
BX36,43551,403656,3,W 181 ST/ST NICHOLAS AV,EB,Weekday,Local,10,40,3,107
BX36,43551,403656,3,W 181 ST/ST NICHOLAS AV,EB,Weekday,Limited,10,3,0,8
BX36,43552,403658,4,W 181 ST/AMSTERDAM AV,EB,Weekday,Local,10,34,5,134
BX36,43552,403658,4,W 181 ST/AMSTERDAM AV,EB,Weekday,Limited,10,2,1,11
BX36,43514,100148,5,UNIVERSITY AV/N OF WASHINGTON BDG,EB,Weekday,Local,10,15,9,138
BX36,21148,100149,5,UNIVERSITY AV/W 174 ST,EB,Weekday,Limited,10,2,1,14
BX36,21148,100149,6,UNIVERSITY AV/W 174 ST,EB,Weekday,Local,10,16,8,145
BX36,43515,100152,6,UNIVERSITY AV/W TREMONT AV,EB,Weekday,Limited,10,4,4,21
BX36,21149,100151,7,UNIVERSITY AV/W 176 ST,EB,Weekday,Local,10,11,7,149
BX36,48662,102359,7,E TREMONT AV/JEROME AV,EB,Weekday,Limited,10,3,3,24
BX36,43515,100152,8,UNIVERSITY AV/W TREMONT AV,EB,Weekday,Local,10,25,14,163
BX36,48663,102361,8,E TREMONT AV/GRAND CONCOURSE,EB,Weekday,Limited,10,5,6,26
BX36,48661,102357,9,W TREMONT AV/W 177 ST,EB,Weekday,Local,10,14,4,168
BX36,21817,102358,10,W TREMONT AV/DAVIDSON AV,EB,Weekday,Local,10,8,17,160
BX36,44215,102492,10,E TREMONT AV/3 AV,EB,Weekday,Limited,10,4,7,31
BX36,48662,102359,11,E TREMONT AV/JEROME AV,EB,Weekday,Local,10,40,15,185
BX36,43721,102494,11,E TREMONT AV/CROTONA AV,EB,Weekday,Limited,10,3,6,32
BX36,48663,102361,12,E TREMONT AV/GRAND CONCOURSE,EB,Weekday,Local,10,45,30,200
BX36,21820,102363,13,E TREMONT AV/ANTHONY AV,EB,Weekday,Local,10,16,19,193
BX36,8237,103310,14,WHITE PLAINS RD/E TREMONT AV,EB,Weekday,Limited,10,3,6,29
BX36,44215,102492,15,E TREMONT AV/3 AV,EB,Weekday,Local,10,27,19,198
BX36,47392,102394,15,WHITE PLAINS RD/WESTCHESTER AV,EB,Weekday,Limited,10,9,11,28
BX36,43654,102493,16,E TREMONT AV/ARTHUR AV,EB,Weekday,Local,10,13,16,189
BX36,8202,103653,16,WHITE PLAINS RD/STORY AV,EB,Weekday,Limited,10,1,10,20
BX36,43721,102494,17,E TREMONT AV/CROTONA AV,EB,Weekday,Local,10,14,17,181
BX36,43843,103355,17,LAFAYETTE AV/WHITE PLAINS RD,EB,Weekday,Limited,10,1,10,13
BX36,43656,102495,18,E TREMONT AV/PROSPECT AV,EB,Weekday,Local,10,10,16,168
BX36,11102,102401,18,SEWARD AV/PUGSLEY AV,EB,Weekday,Limited,10,0,5,8
BX36,11103,102978,19,OLMSTEAD AV/SEWARD AV,EB,Weekday,Limited,10,0,8,0
BX36,43658,102498,20,E TREMONT AV/VYSE AV,EB,Weekday,Local,10,3,19,138
BX36,43659,102499,21,E TREMONT AV/BOSTON RD,EB,Weekday,Local,10,5,21,119
BX36,44218,102566,23,E TREMONT AV/MORRIS PK AV,EB,Weekday,Local,10,4,11,101
BX36,43663,102568,24,E TREMONT AV/COMMONWEALTH AV,EB,Weekday,Local,10,2,8,92
BX36,43665,104104,25,E TREMONT AV/THIERIOT AV,EB,Weekday,Local,10,1,5,87
BX36,8237,103310,26,WHITE PLAINS RD/E TREMONT AV,EB,Weekday,Local,10,5,8,84
BX36,8238,103311,27,WHITE PLAINS RD/ARCHER ST,EB,Weekday,Local,10,7,7,85
BX36,47421,103903,28,WHITE PLAINS RD/WOOD AV,EB,Weekday,Local,10,5,8,83
BX36,47392,102394,29,WHITE PLAINS RD/WESTCHESTER AV,EB,Weekday,Local,10,29,24,87
BX36,8205,102395,30,WHITE PLAINS RD/GLEASON AV,EB,Weekday,Local,10,3,6,87
BX36,8204,102396,31,WHITE PLAINS RD/WATSON AV,EB,Weekday,Local,10,1,5,82
BX36,47419,103701,32,WHITE PLAINS RD/BRUCKNER BL,EB,Weekday,Local,10,2,12,70
BX36,8202,103653,33,WHITE PLAINS RD/STORY AV,EB,Weekday,Local,10,1,24,48
BX36,43843,103355,34,LAFAYETTE AV/WHITE PLAINS RD,EB,Weekday,Local,10,2,24,27
BX36,11102,102401,35,SEWARD AV/PUGSLEY AV,EB,Weekday,Local,10,0,10,18
BX36,11103,102978,36,OLMSTEAD AV/SEWARD AV,EB,Weekday,Local,10,0,17,0
BX36,21245,403667,1,W 178 ST/FT WASHINGTON AV,EB,Weekday,Local,11,41,0,41
BX36,21049,403783,2,WADSWORTH AV/W 181 ST,EB,Weekday,Local,11,27,3,65
BX36,43551,403656,3,W 181 ST/ST NICHOLAS AV,EB,Weekday,Local,11,41,2,103
BX36,43552,403658,4,W 181 ST/AMSTERDAM AV,EB,Weekday,Local,11,39,4,140
BX36,43514,100148,5,UNIVERSITY AV/N OF WASHINGTON BDG,EB,Weekday,Local,11,12,9,145
BX36,21148,100149,6,UNIVERSITY AV/W 174 ST,EB,Weekday,Local,11,14,8,151
BX36,21149,100151,7,UNIVERSITY AV/W 176 ST,EB,Weekday,Local,11,9,7,154
BX36,43515,100152,8,UNIVERSITY AV/W TREMONT AV,EB,Weekday,Local,11,22,14,161
BX36,48661,102357,9,W TREMONT AV/W 177 ST,EB,Weekday,Local,11,10,7,168
BX36,21817,102358,10,W TREMONT AV/DAVIDSON AV,EB,Weekday,Local,11,6,14,158
BX36,48662,102359,11,E TREMONT AV/JEROME AV,EB,Weekday,Local,11,30,13,174
BX36,48663,102361,12,E TREMONT AV/GRAND CONCOURSE,EB,Weekday,Local,11,42,26,183
BX36,21820,102363,13,E TREMONT AV/ANTHONY AV,EB,Weekday,Local,11,17,14,188
BX36,8237,103310,14,WHITE PLAINS RD/E TREMONT AV,EB,Weekday,Limited,11,0,0,0
BX36,44215,102492,15,E TREMONT AV/3 AV,EB,Weekday,Local,11,25,22,199
BX36,47392,102394,15,WHITE PLAINS RD/WESTCHESTER AV,EB,Weekday,Limited,11,0,0,1
BX36,43654,102493,16,E TREMONT AV/ARTHUR AV,EB,Weekday,Local,11,14,15,201
BX36,8202,103653,16,WHITE PLAINS RD/STORY AV,EB,Weekday,Limited,11,0,0,1
BX36,43721,102494,17,E TREMONT AV/CROTONA AV,EB,Weekday,Local,11,14,18,197
BX36,43843,103355,17,LAFAYETTE AV/WHITE PLAINS RD,EB,Weekday,Limited,11,0,1,1
BX36,43656,102495,18,E TREMONT AV/PROSPECT AV,EB,Weekday,Local,11,13,18,197
BX36,11102,102401,18,SEWARD AV/PUGSLEY AV,EB,Weekday,Limited,11,0,0,1
BX36,11103,102978,19,OLMSTEAD AV/SEWARD AV,EB,Weekday,Limited,11,0,1,0
BX36,43658,102498,20,E TREMONT AV/VYSE AV,EB,Weekday,Local,11,4,23,169
BX36,43659,102499,21,E TREMONT AV/BOSTON RD,EB,Weekday,Local,11,5,33,141
BX36,44218,102566,23,E TREMONT AV/MORRIS PK AV,EB,Weekday,Local,11,4,14,123
BX36,43663,102568,24,E TREMONT AV/COMMONWEALTH AV,EB,Weekday,Local,11,5,14,116
BX36,43665,104104,25,E TREMONT AV/THIERIOT AV,EB,Weekday,Local,11,1,8,111
BX36,8237,103310,26,WHITE PLAINS RD/E TREMONT AV,EB,Weekday,Local,11,8,9,109
BX36,8238,103311,27,WHITE PLAINS RD/ARCHER ST,EB,Weekday,Local,11,8,13,102
BX36,47421,103903,28,WHITE PLAINS RD/WOOD AV,EB,Weekday,Local,11,6,13,95
BX36,47392,102394,29,WHITE PLAINS RD/WESTCHESTER AV,EB,Weekday,Local,11,38,26,105
BX36,8205,102395,30,WHITE PLAINS RD/GLEASON AV,EB,Weekday,Local,11,5,7,104
BX36,8204,102396,31,WHITE PLAINS RD/WATSON AV,EB,Weekday,Local,11,0,5,101
BX36,47419,103701,32,WHITE PLAINS RD/BRUCKNER BL,EB,Weekday,Local,11,4,17,88
BX36,8202,103653,33,WHITE PLAINS RD/STORY AV,EB,Weekday,Local,11,4,32,59
BX36,43843,103355,34,LAFAYETTE AV/WHITE PLAINS RD,EB,Weekday,Local,11,3,25,36
BX36,11102,102401,35,SEWARD AV/PUGSLEY AV,EB,Weekday,Local,11,0,14,22
BX36,11103,102978,36,OLMSTEAD AV/SEWARD AV,EB,Weekday,Local,11,0,21,0
BX36,21245,403667,1,W 178 ST/FT WASHINGTON AV,EB,Weekday,Local,12,51,0,51
BX36,21049,403783,2,WADSWORTH AV/W 181 ST,EB,Weekday,Local,12,33,2,83
BX36,43551,403656,3,W 181 ST/ST NICHOLAS AV,EB,Weekday,Local,12,56,4,135
BX36,43552,403658,4,W 181 ST/AMSTERDAM AV,EB,Weekday,Local,12,44,5,169
BX36,43514,100148,5,UNIVERSITY AV/N OF WASHINGTON BDG,EB,Weekday,Local,12,13,9,166
BX36,21148,100149,6,UNIVERSITY AV/W 174 ST,EB,Weekday,Local,12,10,9,166
BX36,21149,100151,7,UNIVERSITY AV/W 176 ST,EB,Weekday,Local,12,10,6,169
BX36,43515,100152,8,UNIVERSITY AV/W TREMONT AV,EB,Weekday,Local,12,23,16,174
BX36,48661,102357,9,W TREMONT AV/W 177 ST,EB,Weekday,Local,12,12,8,175
BX36,21817,102358,10,W TREMONT AV/DAVIDSON AV,EB,Weekday,Local,12,5,16,164
BX36,48662,102359,11,E TREMONT AV/JEROME AV,EB,Weekday,Local,12,37,11,189
BX36,48663,102361,12,E TREMONT AV/GRAND CONCOURSE,EB,Weekday,Local,12,45,32,204
BX36,21820,102363,13,E TREMONT AV/ANTHONY AV,EB,Weekday,Local,12,15,17,199
BX36,44215,102492,15,E TREMONT AV/3 AV,EB,Weekday,Local,12,26,23,212
BX36,43654,102493,16,E TREMONT AV/ARTHUR AV,EB,Weekday,Local,12,19,16,215
BX36,43721,102494,17,E TREMONT AV/CROTONA AV,EB,Weekday,Local,12,14,26,203
BX36,43656,102495,18,E TREMONT AV/PROSPECT AV,EB,Weekday,Local,12,17,15,209
BX36,43658,102498,20,E TREMONT AV/VYSE AV,EB,Weekday,Local,12,6,26,191
BX36,43659,102499,21,E TREMONT AV/BOSTON RD,EB,Weekday,Local,12,4,31,160
BX36,44218,102566,23,E TREMONT AV/MORRIS PK AV,EB,Weekday,Local,12,4,11,131
BX36,43663,102568,24,E TREMONT AV/COMMONWEALTH AV,EB,Weekday,Local,12,4,11,119
BX36,43665,104104,25,E TREMONT AV/THIERIOT AV,EB,Weekday,Local,12,1,9,109
BX36,8237,103310,26,WHITE PLAINS RD/E TREMONT AV,EB,Weekday,Local,12,5,12,98
BX36,8238,103311,27,WHITE PLAINS RD/ARCHER ST,EB,Weekday,Local,12,6,7,99
BX36,47421,103903,28,WHITE PLAINS RD/WOOD AV,EB,Weekday,Local,12,8,9,99
BX36,47392,102394,29,WHITE PLAINS RD/WESTCHESTER AV,EB,Weekday,Local,12,42,24,116
BX36,8205,102395,30,WHITE PLAINS RD/GLEASON AV,EB,Weekday,Local,12,6,11,116
BX36,8204,102396,31,WHITE PLAINS RD/WATSON AV,EB,Weekday,Local,12,2,9,108
BX36,47419,103701,32,WHITE PLAINS RD/BRUCKNER BL,EB,Weekday,Local,12,3,15,95
BX36,8202,103653,33,WHITE PLAINS RD/STORY AV,EB,Weekday,Local,12,5,26,70
BX36,43843,103355,34,LAFAYETTE AV/WHITE PLAINS RD,EB,Weekday,Local,12,3,30,41
BX36,11102,102401,35,SEWARD AV/PUGSLEY AV,EB,Weekday,Local,12,0,16,24
BX36,11103,102978,36,OLMSTEAD AV/SEWARD AV,EB,Weekday,Local,12,0,26,0
BX36,21245,403667,1,W 178 ST/FT WASHINGTON AV,EB,Weekday,Local,13,56,0,56
BX36,21049,403783,2,WADSWORTH AV/W 181 ST,EB,Weekday,Local,13,38,3,90
BX36,43551,403656,3,W 181 ST/ST NICHOLAS AV,EB,Weekday,Local,13,63,2,152
BX36,43552,403658,4,W 181 ST/AMSTERDAM AV,EB,Weekday,Local,13,42,7,184
BX36,43514,100148,5,UNIVERSITY AV/N OF WASHINGTON BDG,EB,Weekday,Local,13,22,9,204
BX36,21148,100149,6,UNIVERSITY AV/W 174 ST,EB,Weekday,Local,13,16,10,206
BX36,21149,100151,7,UNIVERSITY AV/W 176 ST,EB,Weekday,Local,13,11,11,208
BX36,43515,100152,8,UNIVERSITY AV/W TREMONT AV,EB,Weekday,Local,13,33,18,221
BX36,48661,102357,9,W TREMONT AV/W 177 ST,EB,Weekday,Local,13,17,11,230
BX36,21817,102358,10,W TREMONT AV/DAVIDSON AV,EB,Weekday,Local,13,7,21,214
BX36,48662,102359,11,E TREMONT AV/JEROME AV,EB,Weekday,Local,13,37,17,231
BX36,48663,102361,12,E TREMONT AV/GRAND CONCOURSE,EB,Weekday,Local,13,41,36,237
BX36,21820,102363,13,E TREMONT AV/ANTHONY AV,EB,Weekday,Local,13,20,25,227
BX36,44215,102492,15,E TREMONT AV/3 AV,EB,Weekday,Local,13,23,23,210
BX36,43654,102493,16,E TREMONT AV/ARTHUR AV,EB,Weekday,Local,13,12,14,205
BX36,43721,102494,17,E TREMONT AV/CROTONA AV,EB,Weekday,Local,13,12,19,197
BX36,43656,102495,18,E TREMONT AV/PROSPECT AV,EB,Weekday,Local,13,12,15,192
BX36,43658,102498,20,E TREMONT AV/VYSE AV,EB,Weekday,Local,13,6,24,168
BX36,43659,102499,21,E TREMONT AV/BOSTON RD,EB,Weekday,Local,13,6,31,141
BX36,44218,102566,23,E TREMONT AV/MORRIS PK AV,EB,Weekday,Local,13,5,13,136
BX36,43663,102568,24,E TREMONT AV/COMMONWEALTH AV,EB,Weekday,Local,13,7,13,133
BX36,43665,104104,25,E TREMONT AV/THIERIOT AV,EB,Weekday,Local,13,1,8,125
BX36,8237,103310,26,WHITE PLAINS RD/E TREMONT AV,EB,Weekday,Local,13,4,14,119
BX36,8238,103311,27,WHITE PLAINS RD/ARCHER ST,EB,Weekday,Local,13,12,13,124
BX36,47421,103903,28,WHITE PLAINS RD/WOOD AV,EB,Weekday,Local,13,12,15,127
BX36,47392,102394,29,WHITE PLAINS RD/WESTCHESTER AV,EB,Weekday,Local,13,38,37,120
BX36,8205,102395,30,WHITE PLAINS RD/GLEASON AV,EB,Weekday,Local,13,8,12,141
BX36,8204,102396,31,WHITE PLAINS RD/WATSON AV,EB,Weekday,Local,13,4,9,133
BX36,47419,103701,32,WHITE PLAINS RD/BRUCKNER BL,EB,Weekday,Local,13,3,19,116
BX36,8202,103653,33,WHITE PLAINS RD/STORY AV,EB,Weekday,Local,13,5,39,78
BX36,43843,103355,34,LAFAYETTE AV/WHITE PLAINS RD,EB,Weekday,Local,13,3,34,50
BX36,11102,102401,35,SEWARD AV/PUGSLEY AV,EB,Weekday,Local,13,0,16,34
BX36,11103,102978,36,OLMSTEAD AV/SEWARD AV,EB,Weekday,Local,13,0,34,0
BX36,21245,403667,1,W 178 ST/FT WASHINGTON AV,EB,Weekday,Local,14,53,0,53
BX36,21245,403667,1,W 178 ST/FT WASHINGTON AV,EB,Weekday,Limited,14,20,0,20
BX36,21049,403783,2,WADSWORTH AV/W 181 ST,EB,Weekday,Local,14,45,4,98
BX36,21049,403783,2,WADSWORTH AV/W 181 ST,EB,Weekday,Limited,14,16,0,34
BX36,43551,403656,3,W 181 ST/ST NICHOLAS AV,EB,Weekday,Local,14,80,2,175
BX36,43551,403656,3,W 181 ST/ST NICHOLAS AV,EB,Weekday,Limited,14,25,1,57
BX36,43552,403658,4,W 181 ST/AMSTERDAM AV,EB,Weekday,Local,14,59,7,238
BX36,43552,403658,4,W 181 ST/AMSTERDAM AV,EB,Weekday,Limited,14,12,3,54
BX36,43514,100148,5,UNIVERSITY AV/N OF WASHINGTON BDG,EB,Weekday,Local,14,22,11,228
BX36,21148,100149,5,UNIVERSITY AV/W 174 ST,EB,Weekday,Limited,14,3,4,34
BX36,21148,100149,6,UNIVERSITY AV/W 174 ST,EB,Weekday,Local,14,21,14,229
BX36,43515,100152,6,UNIVERSITY AV/W TREMONT AV,EB,Weekday,Limited,14,1,2,9
BX36,21149,100151,7,UNIVERSITY AV/W 176 ST,EB,Weekday,Local,14,18,11,241
BX36,43515,100152,8,UNIVERSITY AV/W TREMONT AV,EB,Weekday,Local,14,42,26,252
BX36,48661,102357,9,W TREMONT AV/W 177 ST,EB,Weekday,Local,14,16,10,256
BX36,21817,102358,10,W TREMONT AV/DAVIDSON AV,EB,Weekday,Local,14,8,24,239
BX36,48662,102359,11,E TREMONT AV/JEROME AV,EB,Weekday,Local,14,45,25,262
BX36,48663,102361,12,E TREMONT AV/GRAND CONCOURSE,EB,Weekday,Local,14,58,50,262
BX36,21820,102363,13,E TREMONT AV/ANTHONY AV,EB,Weekday,Local,14,15,23,257
BX36,44215,102492,15,E TREMONT AV/3 AV,EB,Weekday,Local,14,30,30,247
BX36,43654,102493,16,E TREMONT AV/ARTHUR AV,EB,Weekday,Local,14,17,22,228
BX36,43721,102494,17,E TREMONT AV/CROTONA AV,EB,Weekday,Local,14,19,24,218
BX36,43656,102495,18,E TREMONT AV/PROSPECT AV,EB,Weekday,Local,14,24,17,222
BX36,43658,102498,20,E TREMONT AV/VYSE AV,EB,Weekday,Local,14,8,27,186
BX36,43659,102499,21,E TREMONT AV/BOSTON RD,EB,Weekday,Local,14,7,33,160
BX36,44218,102566,23,E TREMONT AV/MORRIS PK AV,EB,Weekday,Local,14,3,15,141
BX36,43663,102568,24,E TREMONT AV/COMMONWEALTH AV,EB,Weekday,Local,14,5,13,127
BX36,43665,104104,25,E TREMONT AV/THIERIOT AV,EB,Weekday,Local,14,1,11,118
BX36,8237,103310,26,WHITE PLAINS RD/E TREMONT AV,EB,Weekday,Local,14,7,14,110
BX36,8238,103311,27,WHITE PLAINS RD/ARCHER ST,EB,Weekday,Local,14,6,13,106
BX36,47421,103903,28,WHITE PLAINS RD/WOOD AV,EB,Weekday,Local,14,9,13,104
BX36,47392,102394,29,WHITE PLAINS RD/WESTCHESTER AV,EB,Weekday,Local,14,39,33,107
BX36,8205,102395,30,WHITE PLAINS RD/GLEASON AV,EB,Weekday,Local,14,5,9,132
BX36,8204,102396,31,WHITE PLAINS RD/WATSON AV,EB,Weekday,Local,14,3,10,126
BX36,47419,103701,32,WHITE PLAINS RD/BRUCKNER BL,EB,Weekday,Local,14,4,16,114
BX36,8202,103653,33,WHITE PLAINS RD/STORY AV,EB,Weekday,Local,14,10,38,101
BX36,43843,103355,34,LAFAYETTE AV/WHITE PLAINS RD,EB,Weekday,Local,14,4,38,62
BX36,11102,102401,35,SEWARD AV/PUGSLEY AV,EB,Weekday,Local,14,0,23,38
BX36,11103,102978,36,OLMSTEAD AV/SEWARD AV,EB,Weekday,Local,14,0,38,0
BX36,21245,403667,1,W 178 ST/FT WASHINGTON AV,EB,Weekday,Local,15,96,0,96
BX36,21245,403667,1,W 178 ST/FT WASHINGTON AV,EB,Weekday,Limited,15,35,0,35
BX36,21049,403783,2,WADSWORTH AV/W 181 ST,EB,Weekday,Local,15,58,4,150
BX36,21049,403783,2,WADSWORTH AV/W 181 ST,EB,Weekday,Limited,15,24,3,55
BX36,43551,403656,3,W 181 ST/ST NICHOLAS AV,EB,Weekday,Local,15,93,6,236
BX36,43551,403656,3,W 181 ST/ST NICHOLAS AV,EB,Weekday,Limited,15,37,2,87
BX36,43552,403658,4,W 181 ST/AMSTERDAM AV,EB,Weekday,Local,15,61,9,280
BX36,43552,403658,4,W 181 ST/AMSTERDAM AV,EB,Weekday,Limited,15,36,8,130
BX36,43514,100148,5,UNIVERSITY AV/N OF WASHINGTON BDG,EB,Weekday,Local,15,20,19,246
BX36,21148,100149,5,UNIVERSITY AV/W 174 ST,EB,Weekday,Limited,15,22,13,129
BX36,21148,100149,6,UNIVERSITY AV/W 174 ST,EB,Weekday,Local,15,16,15,240
BX36,43515,100152,6,UNIVERSITY AV/W TREMONT AV,EB,Weekday,Limited,15,25,35,133
BX36,21149,100151,7,UNIVERSITY AV/W 176 ST,EB,Weekday,Local,15,15,14,238
BX36,48662,102359,7,E TREMONT AV/JEROME AV,EB,Weekday,Limited,15,30,15,152
BX36,43515,100152,8,UNIVERSITY AV/W TREMONT AV,EB,Weekday,Local,15,31,32,233
BX36,48663,102361,8,E TREMONT AV/GRAND CONCOURSE,EB,Weekday,Limited,15,41,29,154
BX36,48661,102357,9,W TREMONT AV/W 177 ST,EB,Weekday,Local,15,13,9,235
BX36,21817,102358,10,W TREMONT AV/DAVIDSON AV,EB,Weekday,Local,15,5,22,218
BX36,44215,102492,10,E TREMONT AV/3 AV,EB,Weekday,Limited,15,16,26,130
BX36,48662,102359,11,E TREMONT AV/JEROME AV,EB,Weekday,Local,15,32,17,233
BX36,43721,102494,11,E TREMONT AV/CROTONA AV,EB,Weekday,Limited,15,13,22,110
BX36,48663,102361,12,E TREMONT AV/GRAND CONCOURSE,EB,Weekday,Local,15,58,35,248
BX36,21820,102363,13,E TREMONT AV/ANTHONY AV,EB,Weekday,Local,15,19,21,248
BX36,8237,103310,14,WHITE PLAINS RD/E TREMONT AV,EB,Weekday,Limited,15,3,14,42
BX36,44215,102492,15,E TREMONT AV/3 AV,EB,Weekday,Local,15,41,34,292
BX36,47392,102394,15,WHITE PLAINS RD/WESTCHESTER AV,EB,Weekday,Limited,15,27,12,53
BX36,43654,102493,16,E TREMONT AV/ARTHUR AV,EB,Weekday,Local,15,28,27,303
BX36,8202,103653,16,WHITE PLAINS RD/STORY AV,EB,Weekday,Limited,15,5,19,34
BX36,43721,102494,17,E TREMONT AV/CROTONA AV,EB,Weekday,Local,15,25,24,306
BX36,43843,103355,17,LAFAYETTE AV/WHITE PLAINS RD,EB,Weekday,Limited,15,0,12,20
BX36,43656,102495,18,E TREMONT AV/PROSPECT AV,EB,Weekday,Local,15,30,22,310
BX36,11102,102401,18,SEWARD AV/PUGSLEY AV,EB,Weekday,Limited,15,0,9,10
BX36,11103,102978,19,OLMSTEAD AV/SEWARD AV,EB,Weekday,Limited,15,0,11,0
BX36,43658,102498,20,E TREMONT AV/VYSE AV,EB,Weekday,Local,15,12,31,271
BX36,43659,102499,21,E TREMONT AV/BOSTON RD,EB,Weekday,Local,15,10,46,226
BX36,44218,102566,23,E TREMONT AV/MORRIS PK AV,EB,Weekday,Local,15,8,23,213
BX36,43663,102568,24,E TREMONT AV/COMMONWEALTH AV,EB,Weekday,Local,15,5,23,198
BX36,43665,104104,25,E TREMONT AV/THIERIOT AV,EB,Weekday,Local,15,1,20,177
BX36,8237,103310,26,WHITE PLAINS RD/E TREMONT AV,EB,Weekday,Local,15,7,22,162
BX36,8238,103311,27,WHITE PLAINS RD/ARCHER ST,EB,Weekday,Local,15,13,17,160
BX36,47421,103903,28,WHITE PLAINS RD/WOOD AV,EB,Weekday,Local,15,11,19,154
BX36,47392,102394,29,WHITE PLAINS RD/WESTCHESTER AV,EB,Weekday,Local,15,67,38,179
BX36,8205,102395,30,WHITE PLAINS RD/GLEASON AV,EB,Weekday,Local,15,12,14,203
BX36,8204,102396,31,WHITE PLAINS RD/WATSON AV,EB,Weekday,Local,15,2,15,182
BX36,47419,103701,32,WHITE PLAINS RD/BRUCKNER BL,EB,Weekday,Local,15,5,28,160
BX36,8202,103653,33,WHITE PLAINS RD/STORY AV,EB,Weekday,Local,15,9,51,106
BX36,43843,103355,34,LAFAYETTE AV/WHITE PLAINS RD,EB,Weekday,Local,15,4,46,63
BX36,11102,102401,35,SEWARD AV/PUGSLEY AV,EB,Weekday,Local,15,0,27,38
BX36,11103,102978,36,OLMSTEAD AV/SEWARD AV,EB,Weekday,Local,15,0,38,0
BX36,21245,403667,1,W 178 ST/FT WASHINGTON AV,EB,Weekday,Local,16,82,0,82
BX36,21245,403667,1,W 178 ST/FT WASHINGTON AV,EB,Weekday,Limited,16,85,0,85
BX36,21049,403783,2,WADSWORTH AV/W 181 ST,EB,Weekday,Local,16,57,2,137
BX36,21049,403783,2,WADSWORTH AV/W 181 ST,EB,Weekday,Limited,16,39,4,126
BX36,43551,403656,3,W 181 ST/ST NICHOLAS AV,EB,Weekday,Local,16,63,2,197
BX36,43551,403656,3,W 181 ST/ST NICHOLAS AV,EB,Weekday,Limited,16,60,7,179
BX36,43552,403658,4,W 181 ST/AMSTERDAM AV,EB,Weekday,Local,16,49,8,235
BX36,43552,403658,4,W 181 ST/AMSTERDAM AV,EB,Weekday,Limited,16,44,11,203
BX36,43514,100148,5,UNIVERSITY AV/N OF WASHINGTON BDG,EB,Weekday,Local,16,21,15,227
BX36,21148,100149,5,UNIVERSITY AV/W 174 ST,EB,Weekday,Limited,16,22,16,167
BX36,21148,100149,6,UNIVERSITY AV/W 174 ST,EB,Weekday,Local,16,17,16,228
BX36,43515,100152,6,UNIVERSITY AV/W TREMONT AV,EB,Weekday,Limited,16,32,39,160
BX36,21149,100151,7,UNIVERSITY AV/W 176 ST,EB,Weekday,Local,16,11,20,220
BX36,48662,102359,7,E TREMONT AV/JEROME AV,EB,Weekday,Limited,16,34,18,173
BX36,43515,100152,8,UNIVERSITY AV/W TREMONT AV,EB,Weekday,Local,16,28,30,222
BX36,48663,102361,8,E TREMONT AV/GRAND CONCOURSE,EB,Weekday,Limited,16,60,34,198
BX36,48661,102357,9,W TREMONT AV/W 177 ST,EB,Weekday,Local,16,14,10,228
BX36,21817,102358,10,W TREMONT AV/DAVIDSON AV,EB,Weekday,Local,16,8,16,224
BX36,44215,102492,10,E TREMONT AV/3 AV,EB,Weekday,Limited,16,16,34,167
BX36,48662,102359,11,E TREMONT AV/JEROME AV,EB,Weekday,Local,16,39,21,242
BX36,43721,102494,11,E TREMONT AV/CROTONA AV,EB,Weekday,Limited,16,9,35,141
BX36,48663,102361,12,E TREMONT AV/GRAND CONCOURSE,EB,Weekday,Local,16,61,42,262
BX36,21820,102363,13,E TREMONT AV/ANTHONY AV,EB,Weekday,Local,16,20,21,262
BX36,8237,103310,14,WHITE PLAINS RD/E TREMONT AV,EB,Weekday,Limited,16,7,22,70
BX36,44215,102492,15,E TREMONT AV/3 AV,EB,Weekday,Local,16,33,30,270
BX36,47392,102394,15,WHITE PLAINS RD/WESTCHESTER AV,EB,Weekday,Limited,16,56,25,100
BX36,43654,102493,16,E TREMONT AV/ARTHUR AV,EB,Weekday,Local,16,16,26,257
BX36,8202,103653,16,WHITE PLAINS RD/STORY AV,EB,Weekday,Limited,16,4,30,73
BX36,43721,102494,17,E TREMONT AV/CROTONA AV,EB,Weekday,Local,16,17,25,252
BX36,43843,103355,17,LAFAYETTE AV/WHITE PLAINS RD,EB,Weekday,Limited,16,1,35,38
BX36,43656,102495,18,E TREMONT AV/PROSPECT AV,EB,Weekday,Local,16,16,19,254
BX36,11102,102401,18,SEWARD AV/PUGSLEY AV,EB,Weekday,Limited,16,0,18,21
BX36,11103,102978,19,OLMSTEAD AV/SEWARD AV,EB,Weekday,Limited,16,0,21,0
BX36,43658,102498,20,E TREMONT AV/VYSE AV,EB,Weekday,Local,16,8,30,229
BX36,43659,102499,21,E TREMONT AV/BOSTON RD,EB,Weekday,Local,16,7,38,193
BX36,44218,102566,23,E TREMONT AV/MORRIS PK AV,EB,Weekday,Local,16,7,16,182
BX36,43663,102568,24,E TREMONT AV/COMMONWEALTH AV,EB,Weekday,Local,16,6,19,170
BX36,43665,104104,25,E TREMONT AV/THIERIOT AV,EB,Weekday,Local,16,2,11,161
BX36,8237,103310,26,WHITE PLAINS RD/E TREMONT AV,EB,Weekday,Local,16,5,18,149
BX36,8238,103311,27,WHITE PLAINS RD/ARCHER ST,EB,Weekday,Local,16,15,17,147
BX36,47421,103903,28,WHITE PLAINS RD/WOOD AV,EB,Weekday,Local,16,19,19,146
BX36,47392,102394,29,WHITE PLAINS RD/WESTCHESTER AV,EB,Weekday,Local,16,75,36,190
BX36,8205,102395,30,WHITE PLAINS RD/GLEASON AV,EB,Weekday,Local,16,16,14,210
BX36,8204,102396,31,WHITE PLAINS RD/WATSON AV,EB,Weekday,Local,16,3,12,205
BX36,47419,103701,32,WHITE PLAINS RD/BRUCKNER BL,EB,Weekday,Local,16,4,24,182
BX36,8202,103653,33,WHITE PLAINS RD/STORY AV,EB,Weekday,Local,16,12,62,135
BX36,43843,103355,34,LAFAYETTE AV/WHITE PLAINS RD,EB,Weekday,Local,16,3,59,80
BX36,11102,102401,35,SEWARD AV/PUGSLEY AV,EB,Weekday,Local,16,0,31,49
BX36,11103,102978,36,OLMSTEAD AV/SEWARD AV,EB,Weekday,Local,16,0,49,0
BX36,21245,403667,1,W 178 ST/FT WASHINGTON AV,EB,Weekday,Local,17,66,0,66
BX36,21245,403667,1,W 178 ST/FT WASHINGTON AV,EB,Weekday,Limited,17,92,0,92
BX36,21049,403783,2,WADSWORTH AV/W 181 ST,EB,Weekday,Local,17,46,2,109
BX36,21049,403783,2,WADSWORTH AV/W 181 ST,EB,Weekday,Limited,17,39,4,129
BX36,43551,403656,3,W 181 ST/ST NICHOLAS AV,EB,Weekday,Local,17,61,2,170
BX36,43551,403656,3,W 181 ST/ST NICHOLAS AV,EB,Weekday,Limited,17,62,4,189
BX36,43552,403658,4,W 181 ST/AMSTERDAM AV,EB,Weekday,Local,17,42,5,209
BX36,43552,403658,4,W 181 ST/AMSTERDAM AV,EB,Weekday,Limited,17,31,12,207
BX36,43514,100148,5,UNIVERSITY AV/N OF WASHINGTON BDG,EB,Weekday,Local,17,13,14,206
BX36,21148,100149,5,UNIVERSITY AV/W 174 ST,EB,Weekday,Limited,17,16,22,190
BX36,21148,100149,6,UNIVERSITY AV/W 174 ST,EB,Weekday,Local,17,12,13,200
BX36,43515,100152,6,UNIVERSITY AV/W TREMONT AV,EB,Weekday,Limited,17,26,44,177
BX36,21149,100151,7,UNIVERSITY AV/W 176 ST,EB,Weekday,Local,17,8,15,193
BX36,48662,102359,7,E TREMONT AV/JEROME AV,EB,Weekday,Limited,17,38,26,193
BX36,43515,100152,8,UNIVERSITY AV/W TREMONT AV,EB,Weekday,Local,17,25,29,195
BX36,48663,102361,8,E TREMONT AV/GRAND CONCOURSE,EB,Weekday,Limited,17,53,36,215
BX36,48661,102357,9,W TREMONT AV/W 177 ST,EB,Weekday,Local,17,12,8,198
BX36,21817,102358,10,W TREMONT AV/DAVIDSON AV,EB,Weekday,Local,17,6,17,188
BX36,44215,102492,10,E TREMONT AV/3 AV,EB,Weekday,Limited,17,15,30,197
BX36,48662,102359,11,E TREMONT AV/JEROME AV,EB,Weekday,Local,17,35,19,203
BX36,43721,102494,11,E TREMONT AV/CROTONA AV,EB,Weekday,Limited,17,13,35,179
BX36,48663,102361,12,E TREMONT AV/GRAND CONCOURSE,EB,Weekday,Local,17,62,35,235
BX36,21820,102363,13,E TREMONT AV/ANTHONY AV,EB,Weekday,Local,17,14,18,229
BX36,8237,103310,14,WHITE PLAINS RD/E TREMONT AV,EB,Weekday,Limited,17,11,28,119
BX36,44215,102492,15,E TREMONT AV/3 AV,EB,Weekday,Local,17,23,25,223
BX36,47392,102394,15,WHITE PLAINS RD/WESTCHESTER AV,EB,Weekday,Limited,17,79,38,157
BX36,43654,102493,16,E TREMONT AV/ARTHUR AV,EB,Weekday,Local,17,15,23,221
BX36,8202,103653,16,WHITE PLAINS RD/STORY AV,EB,Weekday,Limited,17,6,53,113
BX36,43721,102494,17,E TREMONT AV/CROTONA AV,EB,Weekday,Local,17,12,26,203
BX36,43843,103355,17,LAFAYETTE AV/WHITE PLAINS RD,EB,Weekday,Limited,17,2,48,64
BX36,43656,102495,18,E TREMONT AV/PROSPECT AV,EB,Weekday,Local,17,18,13,213
BX36,11102,102401,18,SEWARD AV/PUGSLEY AV,EB,Weekday,Limited,17,0,28,38
BX36,11103,102978,19,OLMSTEAD AV/SEWARD AV,EB,Weekday,Limited,17,0,37,0
BX36,43658,102498,20,E TREMONT AV/VYSE AV,EB,Weekday,Local,17,6,20,192
BX36,43659,102499,21,E TREMONT AV/BOSTON RD,EB,Weekday,Local,17,9,31,176
BX36,44218,102566,23,E TREMONT AV/MORRIS PK AV,EB,Weekday,Local,17,7,17,163
BX36,43663,102568,24,E TREMONT AV/COMMONWEALTH AV,EB,Weekday,Local,17,5,16,155
BX36,43665,104104,25,E TREMONT AV/THIERIOT AV,EB,Weekday,Local,17,2,10,148
BX36,8237,103310,26,WHITE PLAINS RD/E TREMONT AV,EB,Weekday,Local,17,6,14,140
BX36,8238,103311,27,WHITE PLAINS RD/ARCHER ST,EB,Weekday,Local,17,14,11,147
BX36,47421,103903,28,WHITE PLAINS RD/WOOD AV,EB,Weekday,Local,17,19,16,151
BX36,47392,102394,29,WHITE PLAINS RD/WESTCHESTER AV,EB,Weekday,Local,17,76,36,189
BX36,8205,102395,30,WHITE PLAINS RD/GLEASON AV,EB,Weekday,Local,17,12,16,192
BX36,8204,102396,31,WHITE PLAINS RD/WATSON AV,EB,Weekday,Local,17,1,12,182
BX36,47419,103701,32,WHITE PLAINS RD/BRUCKNER BL,EB,Weekday,Local,17,4,25,164
BX36,8202,103653,33,WHITE PLAINS RD/STORY AV,EB,Weekday,Local,17,7,56,116
BX36,43843,103355,34,LAFAYETTE AV/WHITE PLAINS RD,EB,Weekday,Local,17,3,51,72
BX36,11102,102401,35,SEWARD AV/PUGSLEY AV,EB,Weekday,Local,17,0,32,40
BX36,11103,102978,36,OLMSTEAD AV/SEWARD AV,EB,Weekday,Local,17,0,41,0
BX36,21245,403667,1,W 178 ST/FT WASHINGTON AV,EB,Weekday,Local,18,87,0,87
BX36,21245,403667,1,W 178 ST/FT WASHINGTON AV,EB,Weekday,Limited,18,67,0,67
BX36,21049,403783,2,WADSWORTH AV/W 181 ST,EB,Weekday,Local,18,51,6,135
BX36,21049,403783,2,WADSWORTH AV/W 181 ST,EB,Weekday,Limited,18,43,3,106
BX36,43551,403656,3,W 181 ST/ST NICHOLAS AV,EB,Weekday,Local,18,70,5,198
BX36,43551,403656,3,W 181 ST/ST NICHOLAS AV,EB,Weekday,Limited,18,55,3,160
BX36,43552,403658,4,W 181 ST/AMSTERDAM AV,EB,Weekday,Local,18,50,11,232
BX36,43552,403658,4,W 181 ST/AMSTERDAM AV,EB,Weekday,Limited,18,31,10,178
BX36,43514,100148,5,UNIVERSITY AV/N OF WASHINGTON BDG,EB,Weekday,Local,18,10,19,220
BX36,21148,100149,5,UNIVERSITY AV/W 174 ST,EB,Weekday,Limited,18,7,19,168
BX36,21148,100149,6,UNIVERSITY AV/W 174 ST,EB,Weekday,Local,18,11,19,218
BX36,43515,100152,6,UNIVERSITY AV/W TREMONT AV,EB,Weekday,Limited,18,16,44,147
BX36,21149,100151,7,UNIVERSITY AV/W 176 ST,EB,Weekday,Local,18,7,19,208
BX36,48662,102359,7,E TREMONT AV/JEROME AV,EB,Weekday,Limited,18,37,15,168
BX36,43515,100152,8,UNIVERSITY AV/W TREMONT AV,EB,Weekday,Local,18,20,30,196
BX36,48663,102361,8,E TREMONT AV/GRAND CONCOURSE,EB,Weekday,Limited,18,47,37,181
BX36,48661,102357,9,W TREMONT AV/W 177 ST,EB,Weekday,Local,18,14,9,203
BX36,21817,102358,10,W TREMONT AV/DAVIDSON AV,EB,Weekday,Local,18,6,17,192
BX36,44215,102492,10,E TREMONT AV/3 AV,EB,Weekday,Limited,18,11,30,151
BX36,48662,102359,11,E TREMONT AV/JEROME AV,EB,Weekday,Local,18,39,16,218
BX36,43721,102494,11,E TREMONT AV/CROTONA AV,EB,Weekday,Limited,18,11,31,128
BX36,48663,102361,12,E TREMONT AV/GRAND CONCOURSE,EB,Weekday,Local,18,43,32,228
BX36,21820,102363,13,E TREMONT AV/ANTHONY AV,EB,Weekday,Local,18,21,18,235
BX36,8237,103310,14,WHITE PLAINS RD/E TREMONT AV,EB,Weekday,Limited,18,12,26,92
BX36,44215,102492,15,E TREMONT AV/3 AV,EB,Weekday,Local,18,19,27,234
BX36,47392,102394,15,WHITE PLAINS RD/WESTCHESTER AV,EB,Weekday,Limited,18,71,31,130
BX36,43654,102493,16,E TREMONT AV/ARTHUR AV,EB,Weekday,Local,18,12,27,221
BX36,8202,103653,16,WHITE PLAINS RD/STORY AV,EB,Weekday,Limited,18,3,39,96
BX36,43721,102494,17,E TREMONT AV/CROTONA AV,EB,Weekday,Local,18,11,25,206
BX36,43843,103355,17,LAFAYETTE AV/WHITE PLAINS RD,EB,Weekday,Limited,18,1,47,51
BX36,43656,102495,18,E TREMONT AV/PROSPECT AV,EB,Weekday,Local,18,12,16,201
BX36,11102,102401,18,SEWARD AV/PUGSLEY AV,EB,Weekday,Limited,18,0,25,27
BX36,11103,102978,19,OLMSTEAD AV/SEWARD AV,EB,Weekday,Limited,18,0,29,0
BX36,43658,102498,20,E TREMONT AV/VYSE AV,EB,Weekday,Local,18,4,24,170
BX36,43659,102499,21,E TREMONT AV/BOSTON RD,EB,Weekday,Local,18,5,28,148
BX36,44218,102566,23,E TREMONT AV/MORRIS PK AV,EB,Weekday,Local,18,5,10,143
BX36,43663,102568,24,E TREMONT AV/COMMONWEALTH AV,EB,Weekday,Local,18,3,13,132
BX36,43665,104104,25,E TREMONT AV/THIERIOT AV,EB,Weekday,Local,18,2,10,123
BX36,8237,103310,26,WHITE PLAINS RD/E TREMONT AV,EB,Weekday,Local,18,2,12,116
BX36,8238,103311,27,WHITE PLAINS RD/ARCHER ST,EB,Weekday,Local,18,11,10,117
BX36,47421,103903,28,WHITE PLAINS RD/WOOD AV,EB,Weekday,Local,18,14,12,119
BX36,47392,102394,29,WHITE PLAINS RD/WESTCHESTER AV,EB,Weekday,Local,18,53,28,145
BX36,8205,102395,30,WHITE PLAINS RD/GLEASON AV,EB,Weekday,Local,18,9,11,148
BX36,8204,102396,31,WHITE PLAINS RD/WATSON AV,EB,Weekday,Local,18,2,8,140
BX36,47419,103701,32,WHITE PLAINS RD/BRUCKNER BL,EB,Weekday,Local,18,2,19,119
BX36,8202,103653,33,WHITE PLAINS RD/STORY AV,EB,Weekday,Local,18,3,41,85
BX36,43843,103355,34,LAFAYETTE AV/WHITE PLAINS RD,EB,Weekday,Local,18,2,39,47
BX36,11102,102401,35,SEWARD AV/PUGSLEY AV,EB,Weekday,Local,18,0,19,28
BX36,11103,102978,36,OLMSTEAD AV/SEWARD AV,EB,Weekday,Local,18,0,29,0
BX36,21245,403667,1,W 178 ST/FT WASHINGTON AV,EB,Weekday,Local,19,67,0,67
BX36,21245,403667,1,W 178 ST/FT WASHINGTON AV,EB,Weekday,Limited,19,28,0,28
BX36,21049,403783,2,WADSWORTH AV/W 181 ST,EB,Weekday,Local,19,35,2,99
BX36,21049,403783,2,WADSWORTH AV/W 181 ST,EB,Weekday,Limited,19,22,2,51
BX36,43551,403656,3,W 181 ST/ST NICHOLAS AV,EB,Weekday,Local,19,59,2,156
BX36,43551,403656,3,W 181 ST/ST NICHOLAS AV,EB,Weekday,Limited,19,34,2,84
BX36,43552,403658,4,W 181 ST/AMSTERDAM AV,EB,Weekday,Local,19,35,8,187
BX36,43552,403658,4,W 181 ST/AMSTERDAM AV,EB,Weekday,Limited,19,20,5,104
BX36,43514,100148,5,UNIVERSITY AV/N OF WASHINGTON BDG,EB,Weekday,Local,19,11,15,181
BX36,21148,100149,5,UNIVERSITY AV/W 174 ST,EB,Weekday,Limited,19,8,18,105
BX36,21148,100149,6,UNIVERSITY AV/W 174 ST,EB,Weekday,Local,19,9,11,170
BX36,43515,100152,6,UNIVERSITY AV/W TREMONT AV,EB,Weekday,Limited,19,13,23,101
BX36,21149,100151,7,UNIVERSITY AV/W 176 ST,EB,Weekday,Local,19,6,12,162
BX36,48662,102359,7,E TREMONT AV/JEROME AV,EB,Weekday,Limited,19,20,13,115
BX36,43515,100152,8,UNIVERSITY AV/W TREMONT AV,EB,Weekday,Local,19,15,21,157
BX36,48663,102361,8,E TREMONT AV/GRAND CONCOURSE,EB,Weekday,Limited,19,35,23,129
BX36,48661,102357,9,W TREMONT AV/W 177 ST,EB,Weekday,Local,19,7,9,153
BX36,21817,102358,10,W TREMONT AV/DAVIDSON AV,EB,Weekday,Local,19,3,19,143
BX36,44215,102492,10,E TREMONT AV/3 AV,EB,Weekday,Limited,19,11,24,114
BX36,48662,102359,11,E TREMONT AV/JEROME AV,EB,Weekday,Local,19,19,12,149
BX36,43721,102494,11,E TREMONT AV/CROTONA AV,EB,Weekday,Limited,19,7,24,99
BX36,48663,102361,12,E TREMONT AV/GRAND CONCOURSE,EB,Weekday,Local,19,33,22,166
BX36,21820,102363,13,E TREMONT AV/ANTHONY AV,EB,Weekday,Local,19,11,18,153
BX36,8237,103310,14,WHITE PLAINS RD/E TREMONT AV,EB,Weekday,Limited,19,3,20,62
BX36,44215,102492,15,E TREMONT AV/3 AV,EB,Weekday,Local,19,12,14,162
BX36,47392,102394,15,WHITE PLAINS RD/WESTCHESTER AV,EB,Weekday,Limited,19,45,26,88
BX36,43654,102493,16,E TREMONT AV/ARTHUR AV,EB,Weekday,Local,19,6,12,158
BX36,8202,103653,16,WHITE PLAINS RD/STORY AV,EB,Weekday,Limited,19,4,30,71
BX36,43721,102494,17,E TREMONT AV/CROTONA AV,EB,Weekday,Local,19,5,15,153
BX36,43843,103355,17,LAFAYETTE AV/WHITE PLAINS RD,EB,Weekday,Limited,19,1,30,42
BX36,43656,102495,18,E TREMONT AV/PROSPECT AV,EB,Weekday,Local,19,5,14,146
BX36,11102,102401,18,SEWARD AV/PUGSLEY AV,EB,Weekday,Limited,19,0,21,22
BX36,11103,102978,19,OLMSTEAD AV/SEWARD AV,EB,Weekday,Limited,19,0,22,0
BX36,43658,102498,20,E TREMONT AV/VYSE AV,EB,Weekday,Local,19,4,18,129
BX36,43659,102499,21,E TREMONT AV/BOSTON RD,EB,Weekday,Local,19,5,22,116
BX36,44218,102566,23,E TREMONT AV/MORRIS PK AV,EB,Weekday,Local,19,4,10,116
BX36,43663,102568,24,E TREMONT AV/COMMONWEALTH AV,EB,Weekday,Local,19,3,9,114
BX36,43665,104104,25,E TREMONT AV/THIERIOT AV,EB,Weekday,Local,19,1,7,109
BX36,8237,103310,26,WHITE PLAINS RD/E TREMONT AV,EB,Weekday,Local,19,3,10,104
BX36,8238,103311,27,WHITE PLAINS RD/ARCHER ST,EB,Weekday,Local,19,9,11,106
BX36,47421,103903,28,WHITE PLAINS RD/WOOD AV,EB,Weekday,Local,19,11,12,102
BX36,47392,102394,29,WHITE PLAINS RD/WESTCHESTER AV,EB,Weekday,Local,19,36,21,119
BX36,8205,102395,30,WHITE PLAINS RD/GLEASON AV,EB,Weekday,Local,19,10,10,122
BX36,8204,102396,31,WHITE PLAINS RD/WATSON AV,EB,Weekday,Local,19,0,7,121
BX36,47419,103701,32,WHITE PLAINS RD/BRUCKNER BL,EB,Weekday,Local,19,1,18,106
BX36,8202,103653,33,WHITE PLAINS RD/STORY AV,EB,Weekday,Local,19,4,30,81
BX36,43843,103355,34,LAFAYETTE AV/WHITE PLAINS RD,EB,Weekday,Local,19,1,35,47
BX36,11102,102401,35,SEWARD AV/PUGSLEY AV,EB,Weekday,Local,19,0,21,27
BX36,11103,102978,36,OLMSTEAD AV/SEWARD AV,EB,Weekday,Local,19,0,28,0
BX36,21245,403667,1,W 178 ST/FT WASHINGTON AV,EB,Weekday,Local,20,61,0,61
BX36,21049,403783,2,WADSWORTH AV/W 181 ST,EB,Weekday,Local,20,39,1,100
BX36,43551,403656,3,W 181 ST/ST NICHOLAS AV,EB,Weekday,Local,20,65,3,162
BX36,43552,403658,4,W 181 ST/AMSTERDAM AV,EB,Weekday,Local,20,39,6,192
BX36,43514,100148,5,UNIVERSITY AV/N OF WASHINGTON BDG,EB,Weekday,Local,20,8,11,190
BX36,21148,100149,5,UNIVERSITY AV/W 174 ST,EB,Weekday,Limited,20,0,0,0
BX36,21148,100149,6,UNIVERSITY AV/W 174 ST,EB,Weekday,Local,20,8,13,190
BX36,43515,100152,6,UNIVERSITY AV/W TREMONT AV,EB,Weekday,Limited,20,0,0,0
BX36,21149,100151,7,UNIVERSITY AV/W 176 ST,EB,Weekday,Local,20,5,10,186
BX36,48662,102359,7,E TREMONT AV/JEROME AV,EB,Weekday,Limited,20,0,0,1
BX36,43515,100152,8,UNIVERSITY AV/W TREMONT AV,EB,Weekday,Local,20,14,19,183
BX36,48663,102361,8,E TREMONT AV/GRAND CONCOURSE,EB,Weekday,Limited,20,2,1,8
BX36,48661,102357,9,W TREMONT AV/W 177 ST,EB,Weekday,Local,20,6,10,184
BX36,21817,102358,10,W TREMONT AV/DAVIDSON AV,EB,Weekday,Local,20,5,18,163
BX36,44215,102492,10,E TREMONT AV/3 AV,EB,Weekday,Limited,20,1,4,16
BX36,48662,102359,11,E TREMONT AV/JEROME AV,EB,Weekday,Local,20,25,14,174
BX36,43721,102494,11,E TREMONT AV/CROTONA AV,EB,Weekday,Limited,20,1,4,18
BX36,48663,102361,12,E TREMONT AV/GRAND CONCOURSE,EB,Weekday,Local,20,33,24,184
BX36,21820,102363,13,E TREMONT AV/ANTHONY AV,EB,Weekday,Local,20,9,15,178
BX36,8237,103310,14,WHITE PLAINS RD/E TREMONT AV,EB,Weekday,Limited,20,1,6,19
BX36,44215,102492,15,E TREMONT AV/3 AV,EB,Weekday,Local,20,14,16,175
BX36,47392,102394,15,WHITE PLAINS RD/WESTCHESTER AV,EB,Weekday,Limited,20,11,7,26
BX36,43654,102493,16,E TREMONT AV/ARTHUR AV,EB,Weekday,Local,20,6,17,166
BX36,8202,103653,16,WHITE PLAINS RD/STORY AV,EB,Weekday,Limited,20,1,12,21
BX36,43721,102494,17,E TREMONT AV/CROTONA AV,EB,Weekday,Local,20,7,18,159
BX36,43843,103355,17,LAFAYETTE AV/WHITE PLAINS RD,EB,Weekday,Limited,20,0,9,13
BX36,43656,102495,18,E TREMONT AV/PROSPECT AV,EB,Weekday,Local,20,7,13,153
BX36,11102,102401,18,SEWARD AV/PUGSLEY AV,EB,Weekday,Limited,20,0,7,9
BX36,11103,102978,19,OLMSTEAD AV/SEWARD AV,EB,Weekday,Limited,20,0,9,0
BX36,43658,102498,20,E TREMONT AV/VYSE AV,EB,Weekday,Local,20,2,17,136
BX36,43659,102499,21,E TREMONT AV/BOSTON RD,EB,Weekday,Local,20,4,16,122
BX36,44218,102566,23,E TREMONT AV/MORRIS PK AV,EB,Weekday,Local,20,3,11,103
BX36,43663,102568,24,E TREMONT AV/COMMONWEALTH AV,EB,Weekday,Local,20,1,9,92
BX36,43665,104104,25,E TREMONT AV/THIERIOT AV,EB,Weekday,Local,20,1,5,87
BX36,8237,103310,26,WHITE PLAINS RD/E TREMONT AV,EB,Weekday,Local,20,3,9,79
BX36,8238,103311,27,WHITE PLAINS RD/ARCHER ST,EB,Weekday,Local,20,5,7,77
BX36,47421,103903,28,WHITE PLAINS RD/WOOD AV,EB,Weekday,Local,20,5,9,73
BX36,47392,102394,29,WHITE PLAINS RD/WESTCHESTER AV,EB,Weekday,Local,20,30,16,87
BX36,8205,102395,30,WHITE PLAINS RD/GLEASON AV,EB,Weekday,Local,20,5,9,85
BX36,8204,102396,31,WHITE PLAINS RD/WATSON AV,EB,Weekday,Local,20,3,4,83
BX36,47419,103701,32,WHITE PLAINS RD/BRUCKNER BL,EB,Weekday,Local,20,2,10,74
BX36,8202,103653,33,WHITE PLAINS RD/STORY AV,EB,Weekday,Local,20,3,19,59
BX36,43843,103355,34,LAFAYETTE AV/WHITE PLAINS RD,EB,Weekday,Local,20,1,22,36
BX36,11102,102401,35,SEWARD AV/PUGSLEY AV,EB,Weekday,Local,20,0,17,20
BX36,11103,102978,36,OLMSTEAD AV/SEWARD AV,EB,Weekday,Local,20,0,19,0
BX36,21245,403667,1,W 178 ST/FT WASHINGTON AV,EB,Weekday,Local,21,44,0,44
BX36,21049,403783,2,WADSWORTH AV/W 181 ST,EB,Weekday,Local,21,26,1,67
BX36,43551,403656,3,W 181 ST/ST NICHOLAS AV,EB,Weekday,Local,21,37,2,103
BX36,43552,403658,4,W 181 ST/AMSTERDAM AV,EB,Weekday,Local,21,27,5,128
BX36,43514,100148,5,UNIVERSITY AV/N OF WASHINGTON BDG,EB,Weekday,Local,21,7,8,131
BX36,21148,100149,6,UNIVERSITY AV/W 174 ST,EB,Weekday,Local,21,6,8,130
BX36,21149,100151,7,UNIVERSITY AV/W 176 ST,EB,Weekday,Local,21,5,10,126
BX36,43515,100152,8,UNIVERSITY AV/W TREMONT AV,EB,Weekday,Local,21,10,18,118
BX36,48661,102357,9,W TREMONT AV/W 177 ST,EB,Weekday,Local,21,8,9,118
BX36,21817,102358,10,W TREMONT AV/DAVIDSON AV,EB,Weekday,Local,21,5,11,118
BX36,48662,102359,11,E TREMONT AV/JEROME AV,EB,Weekday,Local,21,20,11,128
BX36,48663,102361,12,E TREMONT AV/GRAND CONCOURSE,EB,Weekday,Local,21,25,18,137
BX36,21820,102363,13,E TREMONT AV/ANTHONY AV,EB,Weekday,Local,21,8,15,129
BX36,44215,102492,15,E TREMONT AV/3 AV,EB,Weekday,Local,21,6,13,121
BX36,43654,102493,16,E TREMONT AV/ARTHUR AV,EB,Weekday,Local,21,4,12,113
BX36,43721,102494,17,E TREMONT AV/CROTONA AV,EB,Weekday,Local,21,3,8,108
BX36,43656,102495,18,E TREMONT AV/PROSPECT AV,EB,Weekday,Local,21,4,12,100
BX36,43658,102498,20,E TREMONT AV/VYSE AV,EB,Weekday,Local,21,2,11,82
BX36,43659,102499,21,E TREMONT AV/BOSTON RD,EB,Weekday,Local,21,2,12,71
BX36,44218,102566,23,E TREMONT AV/MORRIS PK AV,EB,Weekday,Local,21,2,4,76
BX36,43663,102568,24,E TREMONT AV/COMMONWEALTH AV,EB,Weekday,Local,21,2,7,74
BX36,43665,104104,25,E TREMONT AV/THIERIOT AV,EB,Weekday,Local,21,1,5,70
BX36,8237,103310,26,WHITE PLAINS RD/E TREMONT AV,EB,Weekday,Local,21,3,8,68
BX36,8238,103311,27,WHITE PLAINS RD/ARCHER ST,EB,Weekday,Local,21,9,6,71
BX36,47421,103903,28,WHITE PLAINS RD/WOOD AV,EB,Weekday,Local,21,9,6,75
BX36,47392,102394,29,WHITE PLAINS RD/WESTCHESTER AV,EB,Weekday,Local,21,33,15,91
BX36,8205,102395,30,WHITE PLAINS RD/GLEASON AV,EB,Weekday,Local,21,5,6,90
BX36,8204,102396,31,WHITE PLAINS RD/WATSON AV,EB,Weekday,Local,21,1,6,87
BX36,47419,103701,32,WHITE PLAINS RD/BRUCKNER BL,EB,Weekday,Local,21,1,12,76
BX36,8202,103653,33,WHITE PLAINS RD/STORY AV,EB,Weekday,Local,21,2,20,58
BX36,43843,103355,34,LAFAYETTE AV/WHITE PLAINS RD,EB,Weekday,Local,21,0,24,35
BX36,11102,102401,35,SEWARD AV/PUGSLEY AV,EB,Weekday,Local,21,1,13,23
BX36,11103,102978,36,OLMSTEAD AV/SEWARD AV,EB,Weekday,Local,21,0,24,0
BX36,21245,403667,1,W 178 ST/FT WASHINGTON AV,EB,Weekday,Local,22,21,0,21
BX36,21049,403783,2,WADSWORTH AV/W 181 ST,EB,Weekday,Local,22,13,0,36
BX36,43551,403656,3,W 181 ST/ST NICHOLAS AV,EB,Weekday,Local,22,32,1,67
BX36,43552,403658,4,W 181 ST/AMSTERDAM AV,EB,Weekday,Local,22,19,3,84
BX36,43514,100148,5,UNIVERSITY AV/N OF WASHINGTON BDG,EB,Weekday,Local,22,4,8,82
BX36,21148,100149,6,UNIVERSITY AV/W 174 ST,EB,Weekday,Local,22,3,6,78
BX36,21149,100151,7,UNIVERSITY AV/W 176 ST,EB,Weekday,Local,22,2,8,73
BX36,43515,100152,8,UNIVERSITY AV/W TREMONT AV,EB,Weekday,Local,22,7,12,69
BX36,48661,102357,9,W TREMONT AV/W 177 ST,EB,Weekday,Local,22,5,4,71
BX36,21817,102358,10,W TREMONT AV/DAVIDSON AV,EB,Weekday,Local,22,3,7,67
BX36,48662,102359,11,E TREMONT AV/JEROME AV,EB,Weekday,Local,22,14,7,74
BX36,48663,102361,12,E TREMONT AV/GRAND CONCOURSE,EB,Weekday,Local,22,18,9,86
BX36,21820,102363,13,E TREMONT AV/ANTHONY AV,EB,Weekday,Local,22,7,7,87
BX36,44215,102492,15,E TREMONT AV/3 AV,EB,Weekday,Local,22,5,8,87
BX36,43654,102493,16,E TREMONT AV/ARTHUR AV,EB,Weekday,Local,22,4,6,86
BX36,43721,102494,17,E TREMONT AV/CROTONA AV,EB,Weekday,Local,22,4,8,82
BX36,43656,102495,18,E TREMONT AV/PROSPECT AV,EB,Weekday,Local,22,3,9,77
BX36,43658,102498,20,E TREMONT AV/VYSE AV,EB,Weekday,Local,22,1,7,68
BX36,43659,102499,21,E TREMONT AV/BOSTON RD,EB,Weekday,Local,22,3,14,58
BX36,44218,102566,23,E TREMONT AV/MORRIS PK AV,EB,Weekday,Local,22,2,4,55
BX36,43663,102568,24,E TREMONT AV/COMMONWEALTH AV,EB,Weekday,Local,22,2,5,52
BX36,43665,104104,25,E TREMONT AV/THIERIOT AV,EB,Weekday,Local,22,0,4,49
BX36,8237,103310,26,WHITE PLAINS RD/E TREMONT AV,EB,Weekday,Local,22,0,6,44
BX36,8238,103311,27,WHITE PLAINS RD/ARCHER ST,EB,Weekday,Local,22,7,3,48
BX36,47421,103903,28,WHITE PLAINS RD/WOOD AV,EB,Weekday,Local,22,5,3,51
BX36,47392,102394,29,WHITE PLAINS RD/WESTCHESTER AV,EB,Weekday,Local,22,21,8,64
BX36,8205,102395,30,WHITE PLAINS RD/GLEASON AV,EB,Weekday,Local,22,4,5,63
BX36,8204,102396,31,WHITE PLAINS RD/WATSON AV,EB,Weekday,Local,22,0,3,60
BX36,47419,103701,32,WHITE PLAINS RD/BRUCKNER BL,EB,Weekday,Local,22,0,12,48
BX36,8202,103653,33,WHITE PLAINS RD/STORY AV,EB,Weekday,Local,22,1,12,39
BX36,43843,103355,34,LAFAYETTE AV/WHITE PLAINS RD,EB,Weekday,Local,22,0,16,23
BX36,11102,102401,35,SEWARD AV/PUGSLEY AV,EB,Weekday,Local,22,0,8,16
BX36,11103,102978,36,OLMSTEAD AV/SEWARD AV,EB,Weekday,Local,22,0,17,0
BX36,21245,403667,1,W 178 ST/FT WASHINGTON AV,EB,Weekday,Local,23,26,0,26
BX36,21049,403783,2,WADSWORTH AV/W 181 ST,EB,Weekday,Local,23,15,3,39
BX36,43551,403656,3,W 181 ST/ST NICHOLAS AV,EB,Weekday,Local,23,27,1,67
BX36,43552,403658,4,W 181 ST/AMSTERDAM AV,EB,Weekday,Local,23,12,5,75
BX36,43514,100148,5,UNIVERSITY AV/N OF WASHINGTON BDG,EB,Weekday,Local,23,1,9,70
BX36,21148,100149,6,UNIVERSITY AV/W 174 ST,EB,Weekday,Local,23,1,6,66
BX36,21149,100151,7,UNIVERSITY AV/W 176 ST,EB,Weekday,Local,23,1,5,64
BX36,43515,100152,8,UNIVERSITY AV/W TREMONT AV,EB,Weekday,Local,23,3,9,58
BX36,48661,102357,9,W TREMONT AV/W 177 ST,EB,Weekday,Local,23,2,6,56
BX36,21817,102358,10,W TREMONT AV/DAVIDSON AV,EB,Weekday,Local,23,2,8,50
BX36,48662,102359,11,E TREMONT AV/JEROME AV,EB,Weekday,Local,23,8,7,45
BX36,48663,102361,12,E TREMONT AV/GRAND CONCOURSE,EB,Weekday,Local,23,13,7,53
BX36,21820,102363,13,E TREMONT AV/ANTHONY AV,EB,Weekday,Local,23,4,6,57
BX36,44215,102492,15,E TREMONT AV/3 AV,EB,Weekday,Local,23,3,7,55
BX36,43654,102493,16,E TREMONT AV/ARTHUR AV,EB,Weekday,Local,23,1,8,52
BX36,43721,102494,17,E TREMONT AV/CROTONA AV,EB,Weekday,Local,23,1,3,51
BX36,43656,102495,18,E TREMONT AV/PROSPECT AV,EB,Weekday,Local,23,0,5,50
BX36,43658,102498,20,E TREMONT AV/VYSE AV,EB,Weekday,Local,23,1,6,46
BX36,43659,102499,21,E TREMONT AV/BOSTON RD,EB,Weekday,Local,23,1,7,36
BX36,44218,102566,23,E TREMONT AV/MORRIS PK AV,EB,Weekday,Local,23,1,3,35
BX36,43663,102568,24,E TREMONT AV/COMMONWEALTH AV,EB,Weekday,Local,23,1,4,36
BX36,43665,104104,25,E TREMONT AV/THIERIOT AV,EB,Weekday,Local,23,0,2,35
BX36,8237,103310,26,WHITE PLAINS RD/E TREMONT AV,EB,Weekday,Local,23,1,3,33
BX36,8238,103311,27,WHITE PLAINS RD/ARCHER ST,EB,Weekday,Local,23,6,3,39
BX36,47421,103903,28,WHITE PLAINS RD/WOOD AV,EB,Weekday,Local,23,8,4,45
BX36,47392,102394,29,WHITE PLAINS RD/WESTCHESTER AV,EB,Weekday,Local,23,17,7,57
BX36,8205,102395,30,WHITE PLAINS RD/GLEASON AV,EB,Weekday,Local,23,3,6,58
BX36,8204,102396,31,WHITE PLAINS RD/WATSON AV,EB,Weekday,Local,23,0,6,53
BX36,47419,103701,32,WHITE PLAINS RD/BRUCKNER BL,EB,Weekday,Local,23,1,5,40
BX36,8202,103653,33,WHITE PLAINS RD/STORY AV,EB,Weekday,Local,23,0,11,31
BX36,43843,103355,34,LAFAYETTE AV/WHITE PLAINS RD,EB,Weekday,Local,23,0,12,20
BX36,11102,102401,35,SEWARD AV/PUGSLEY AV,EB,Weekday,Local,23,0,7,14
BX36,11103,102978,36,OLMSTEAD AV/SEWARD AV,EB,Weekday,Local,23,0,14,0
BX36,11105,102411,1,RANDALL AV/OLMSTEAD AV,WB,Weekday,Local,0,1,0,1
BX36,11107,102413,2,PUGSLEY AV/SEWARD AV,WB,Weekday,Local,0,0,0,2
BX36,43852,104058,3,LAFAYETTE AV/PUGSLEY AV,WB,Weekday,Local,0,0,0,2
BX36,8201,102985,4,WHITE PLAINS RD/LAFAYETTE AV,WB,Weekday,Local,0,2,0,4
BX36,47393,102416,5,WHITE PLAINS RD/STORY AV,WB,Weekday,Local,0,1,0,6
BX36,47394,102417,6,WHITE PLAINS RD/BRUCKNER BL,WB,Weekday,Local,0,1,0,5
BX36,47395,102418,7,WHITE PLAINS RD/WATSON AV,WB,Weekday,Local,0,1,0,6
BX36,47396,102419,8,WHITE PLAINS RD/GLEASON AV,WB,Weekday,Local,0,1,1,6
BX36,47404,103321,9,WHITE PLAINS RD/WESTCHESTER AV,WB,Weekday,Local,0,5,1,9
BX36,8207,103322,10,WHITE PLAINS RD/WOOD AV,WB,Weekday,Local,0,1,0,10
BX36,47420,103902,11,WHITE PLAINS RD/ARCHER ST,WB,Weekday,Local,0,0,0,10
BX36,8208,103323,12,WHITE PLAINS RD/GUERLAIN ST,WB,Weekday,Local,0,1,0,11
BX36,43714,103285,13,E TREMONT AV/LELAND AV,WB,Weekday,Local,0,0,1,11
BX36,43715,103731,14,E TREMONT AV/ST LAWRENCE AV,WB,Weekday,Local,0,2,0,13
BX36,15788,101448,15,E TREMONT AV/MORRIS PK AV,WB,Weekday,Local,0,3,1,14
BX36,43717,104117,16,E TREMONT AV/DEVOE AV,WB,Weekday,Local,0,1,1,15
BX36,43718,102529,18,E TREMONT AV/BRYANT AV,WB,Weekday,Local,0,1,1,20
BX36,21268,102532,20,E TREMONT AV/PROSPECT AV,WB,Weekday,Local,0,2,2,21
BX36,22027,102533,21,E TREMONT AV/CROTONA AV,WB,Weekday,Local,0,2,1,21
BX36,44216,102534,22,E TREMONT AV/ARTHUR AV,WB,Weekday,Local,0,1,1,20
BX36,44232,103446,23,E TREMONT AV/3 AV,WB,Weekday,Local,0,2,2,20
BX36,48688,102446,25,E TREMONT AV/ANTHONY AV,WB,Weekday,Local,0,1,3,21
BX36,48689,102447,26,E TREMONT AV/GRAND CONCOURSE E,WB,Weekday,Local,0,2,4,18
BX36,48692,102450,27,W TREMONT AV/DAVIDSON AV,WB,Weekday,Local,0,4,3,20
BX36,48693,102451,28,W TREMONT AV/W 177 ST,WB,Weekday,Local,0,0,2,18
BX36,43537,100195,29,UNIVERSITY AV/W TREMONT AV,WB,Weekday,Local,0,4,3,25
BX36,59050,104326,30,UNIVERSITY AV/W 176 ST,WB,Weekday,Local,0,0,2,24
BX36,43541,100199,32,UNIVERSITY AV/WASHINGTON BRIDGE,WB,Weekday,Local,0,1,5,17
BX36,10921,403652,33,W 181 ST/AMSTERDAM AV,WB,Weekday,Local,0,0,4,14
BX36,43550,403653,34,W 181 ST/ST NICHOLAS AV,WB,Weekday,Local,0,0,5,9
BX36,48143,404324,35,WADSWORTH AV/W 181 ST,WB,Weekday,Local,0,1,4,6
BX36,21262,403670,36,W 179 ST/BROADWAY,WB,Weekday,Local,0,0,6,0
BX36,11105,102411,1,RANDALL AV/OLMSTEAD AV,WB,Weekday,Local,1,1,0,1
BX36,11107,102413,2,PUGSLEY AV/SEWARD AV,WB,Weekday,Local,1,0,0,1
BX36,43852,104058,3,LAFAYETTE AV/PUGSLEY AV,WB,Weekday,Local,1,0,0,1
BX36,8201,102985,4,WHITE PLAINS RD/LAFAYETTE AV,WB,Weekday,Local,1,3,0,4
BX36,47393,102416,5,WHITE PLAINS RD/STORY AV,WB,Weekday,Local,1,0,0,5
BX36,47394,102417,6,WHITE PLAINS RD/BRUCKNER BL,WB,Weekday,Local,1,0,0,5
BX36,47395,102418,7,WHITE PLAINS RD/WATSON AV,WB,Weekday,Local,1,0,0,5
BX36,47396,102419,8,WHITE PLAINS RD/GLEASON AV,WB,Weekday,Local,1,0,1,5
BX36,47404,103321,9,WHITE PLAINS RD/WESTCHESTER AV,WB,Weekday,Local,1,1,1,5
BX36,8207,103322,10,WHITE PLAINS RD/WOOD AV,WB,Weekday,Local,1,0,0,6
BX36,47420,103902,11,WHITE PLAINS RD/ARCHER ST,WB,Weekday,Local,1,0,0,6
BX36,8208,103323,12,WHITE PLAINS RD/GUERLAIN ST,WB,Weekday,Local,1,0,0,6
BX36,43714,103285,13,E TREMONT AV/LELAND AV,WB,Weekday,Local,1,0,0,6
BX36,43715,103731,14,E TREMONT AV/ST LAWRENCE AV,WB,Weekday,Local,1,1,0,7
BX36,15788,101448,15,E TREMONT AV/MORRIS PK AV,WB,Weekday,Local,1,1,1,7
BX36,43717,104117,16,E TREMONT AV/DEVOE AV,WB,Weekday,Local,1,0,0,7
BX36,43718,102529,18,E TREMONT AV/BRYANT AV,WB,Weekday,Local,1,1,1,9
BX36,21268,102532,20,E TREMONT AV/PROSPECT AV,WB,Weekday,Local,1,0,0,9
BX36,22027,102533,21,E TREMONT AV/CROTONA AV,WB,Weekday,Local,1,1,1,8
BX36,44216,102534,22,E TREMONT AV/ARTHUR AV,WB,Weekday,Local,1,0,0,8
BX36,44232,103446,23,E TREMONT AV/3 AV,WB,Weekday,Local,1,0,1,8
BX36,48688,102446,25,E TREMONT AV/ANTHONY AV,WB,Weekday,Local,1,0,0,9
BX36,48689,102447,26,E TREMONT AV/GRAND CONCOURSE E,WB,Weekday,Local,1,1,2,7
BX36,48692,102450,27,W TREMONT AV/DAVIDSON AV,WB,Weekday,Local,1,2,2,7
BX36,48693,102451,28,W TREMONT AV/W 177 ST,WB,Weekday,Local,1,0,1,7
BX36,43537,100195,29,UNIVERSITY AV/W TREMONT AV,WB,Weekday,Local,1,1,2,5
BX36,59050,104326,30,UNIVERSITY AV/W 176 ST,WB,Weekday,Local,1,0,0,5
BX36,43541,100199,32,UNIVERSITY AV/WASHINGTON BRIDGE,WB,Weekday,Local,1,0,1,4
BX36,10921,403652,33,W 181 ST/AMSTERDAM AV,WB,Weekday,Local,1,0,1,3
BX36,43550,403653,34,W 181 ST/ST NICHOLAS AV,WB,Weekday,Local,1,0,2,2
BX36,48143,404324,35,WADSWORTH AV/W 181 ST,WB,Weekday,Local,1,0,1,1
BX36,21262,403670,36,W 179 ST/BROADWAY,WB,Weekday,Local,1,0,1,0
BX36,11105,102411,1,RANDALL AV/OLMSTEAD AV,WB,Weekday,Local,2,1,0,1
BX36,11107,102413,2,PUGSLEY AV/SEWARD AV,WB,Weekday,Local,2,0,0,1
BX36,43852,104058,3,LAFAYETTE AV/PUGSLEY AV,WB,Weekday,Local,2,0,0,2
BX36,8201,102985,4,WHITE PLAINS RD/LAFAYETTE AV,WB,Weekday,Local,2,1,0,2
BX36,47393,102416,5,WHITE PLAINS RD/STORY AV,WB,Weekday,Local,2,0,0,3
BX36,47394,102417,6,WHITE PLAINS RD/BRUCKNER BL,WB,Weekday,Local,2,1,0,3
BX36,47395,102418,7,WHITE PLAINS RD/WATSON AV,WB,Weekday,Local,2,0,0,3
BX36,47396,102419,8,WHITE PLAINS RD/GLEASON AV,WB,Weekday,Local,2,0,0,3
BX36,47404,103321,9,WHITE PLAINS RD/WESTCHESTER AV,WB,Weekday,Local,2,1,2,2
BX36,8207,103322,10,WHITE PLAINS RD/WOOD AV,WB,Weekday,Local,2,0,0,2
BX36,47420,103902,11,WHITE PLAINS RD/ARCHER ST,WB,Weekday,Local,2,0,0,3
BX36,8208,103323,12,WHITE PLAINS RD/GUERLAIN ST,WB,Weekday,Local,2,1,0,3
BX36,43714,103285,13,E TREMONT AV/LELAND AV,WB,Weekday,Local,2,0,0,3
BX36,43715,103731,14,E TREMONT AV/ST LAWRENCE AV,WB,Weekday,Local,2,0,0,3
BX36,15788,101448,15,E TREMONT AV/MORRIS PK AV,WB,Weekday,Local,2,0,0,3
BX36,43717,104117,16,E TREMONT AV/DEVOE AV,WB,Weekday,Local,2,0,0,4
BX36,43718,102529,18,E TREMONT AV/BRYANT AV,WB,Weekday,Local,2,0,0,5
BX36,21268,102532,20,E TREMONT AV/PROSPECT AV,WB,Weekday,Local,2,1,0,5
BX36,22027,102533,21,E TREMONT AV/CROTONA AV,WB,Weekday,Local,2,0,0,4
BX36,44216,102534,22,E TREMONT AV/ARTHUR AV,WB,Weekday,Local,2,0,0,5
BX36,44232,103446,23,E TREMONT AV/3 AV,WB,Weekday,Local,2,0,1,4
BX36,48688,102446,25,E TREMONT AV/ANTHONY AV,WB,Weekday,Local,2,0,0,4
BX36,48689,102447,26,E TREMONT AV/GRAND CONCOURSE E,WB,Weekday,Local,2,1,1,3
BX36,48692,102450,27,W TREMONT AV/DAVIDSON AV,WB,Weekday,Local,2,1,1,4
BX36,48693,102451,28,W TREMONT AV/W 177 ST,WB,Weekday,Local,2,0,0,4
BX36,43537,100195,29,UNIVERSITY AV/W TREMONT AV,WB,Weekday,Local,2,1,0,4
BX36,59050,104326,30,UNIVERSITY AV/W 176 ST,WB,Weekday,Local,2,0,0,4
BX36,43541,100199,32,UNIVERSITY AV/WASHINGTON BRIDGE,WB,Weekday,Local,2,0,0,3
BX36,10921,403652,33,W 181 ST/AMSTERDAM AV,WB,Weekday,Local,2,0,1,2
BX36,43550,403653,34,W 181 ST/ST NICHOLAS AV,WB,Weekday,Local,2,0,1,1
BX36,48143,404324,35,WADSWORTH AV/W 181 ST,WB,Weekday,Local,2,0,0,1
BX36,21262,403670,36,W 179 ST/BROADWAY,WB,Weekday,Local,2,0,1,0
BX36,11105,102411,1,RANDALL AV/OLMSTEAD AV,WB,Weekday,Local,3,4,0,4
BX36,11107,102413,2,PUGSLEY AV/SEWARD AV,WB,Weekday,Local,3,1,0,5
BX36,43852,104058,3,LAFAYETTE AV/PUGSLEY AV,WB,Weekday,Local,3,1,0,6
BX36,8201,102985,4,WHITE PLAINS RD/LAFAYETTE AV,WB,Weekday,Local,3,5,0,11
BX36,47393,102416,5,WHITE PLAINS RD/STORY AV,WB,Weekday,Local,3,2,0,12
BX36,47394,102417,6,WHITE PLAINS RD/BRUCKNER BL,WB,Weekday,Local,3,1,0,12
BX36,47395,102418,7,WHITE PLAINS RD/WATSON AV,WB,Weekday,Local,3,0,0,12
BX36,47396,102419,8,WHITE PLAINS RD/GLEASON AV,WB,Weekday,Local,3,0,2,10
BX36,47404,103321,9,WHITE PLAINS RD/WESTCHESTER AV,WB,Weekday,Local,3,1,5,6
BX36,8207,103322,10,WHITE PLAINS RD/WOOD AV,WB,Weekday,Local,3,0,1,4
BX36,47420,103902,11,WHITE PLAINS RD/ARCHER ST,WB,Weekday,Local,3,0,0,4
BX36,8208,103323,12,WHITE PLAINS RD/GUERLAIN ST,WB,Weekday,Local,3,1,0,5
BX36,43714,103285,13,E TREMONT AV/LELAND AV,WB,Weekday,Local,3,0,0,5
BX36,43715,103731,14,E TREMONT AV/ST LAWRENCE AV,WB,Weekday,Local,3,0,0,5
BX36,15788,101448,15,E TREMONT AV/MORRIS PK AV,WB,Weekday,Local,3,0,0,4
BX36,43717,104117,16,E TREMONT AV/DEVOE AV,WB,Weekday,Local,3,1,1,5
BX36,43718,102529,18,E TREMONT AV/BRYANT AV,WB,Weekday,Local,3,1,0,6
BX36,21268,102532,20,E TREMONT AV/PROSPECT AV,WB,Weekday,Local,3,2,0,9
BX36,22027,102533,21,E TREMONT AV/CROTONA AV,WB,Weekday,Local,3,3,0,11
BX36,44216,102534,22,E TREMONT AV/ARTHUR AV,WB,Weekday,Local,3,1,0,13
BX36,44232,103446,23,E TREMONT AV/3 AV,WB,Weekday,Local,3,1,0,13
BX36,48688,102446,25,E TREMONT AV/ANTHONY AV,WB,Weekday,Local,3,1,2,13
BX36,48689,102447,26,E TREMONT AV/GRAND CONCOURSE E,WB,Weekday,Local,3,1,5,10
BX36,48692,102450,27,W TREMONT AV/DAVIDSON AV,WB,Weekday,Local,3,3,4,8
BX36,48693,102451,28,W TREMONT AV/W 177 ST,WB,Weekday,Local,3,1,1,8
BX36,43537,100195,29,UNIVERSITY AV/W TREMONT AV,WB,Weekday,Local,3,3,0,11
BX36,59050,104326,30,UNIVERSITY AV/W 176 ST,WB,Weekday,Local,3,0,0,11
BX36,43541,100199,32,UNIVERSITY AV/WASHINGTON BRIDGE,WB,Weekday,Local,3,2,0,14
BX36,10921,403652,33,W 181 ST/AMSTERDAM AV,WB,Weekday,Local,3,0,4,10
BX36,43550,403653,34,W 181 ST/ST NICHOLAS AV,WB,Weekday,Local,3,0,4,5
BX36,48143,404324,35,WADSWORTH AV/W 181 ST,WB,Weekday,Local,3,0,3,2
BX36,21262,403670,36,W 179 ST/BROADWAY,WB,Weekday,Local,3,0,2,0
BX36,11105,102411,1,RANDALL AV/OLMSTEAD AV,WB,Weekday,Local,4,20,0,20
BX36,11107,102413,2,PUGSLEY AV/SEWARD AV,WB,Weekday,Local,4,8,0,26
BX36,43852,104058,3,LAFAYETTE AV/PUGSLEY AV,WB,Weekday,Local,4,5,0,30
BX36,8201,102985,4,WHITE PLAINS RD/LAFAYETTE AV,WB,Weekday,Local,4,27,0,56
BX36,47393,102416,5,WHITE PLAINS RD/STORY AV,WB,Weekday,Local,4,4,1,56
BX36,47394,102417,6,WHITE PLAINS RD/BRUCKNER BL,WB,Weekday,Local,4,4,0,57
BX36,47395,102418,7,WHITE PLAINS RD/WATSON AV,WB,Weekday,Local,4,1,2,55
BX36,47396,102419,8,WHITE PLAINS RD/GLEASON AV,WB,Weekday,Local,4,1,11,44
BX36,47404,103321,9,WHITE PLAINS RD/WESTCHESTER AV,WB,Weekday,Local,4,4,14,33
BX36,8207,103322,10,WHITE PLAINS RD/WOOD AV,WB,Weekday,Local,4,0,12,21
BX36,47420,103902,11,WHITE PLAINS RD/ARCHER ST,WB,Weekday,Local,4,1,0,21
BX36,8208,103323,12,WHITE PLAINS RD/GUERLAIN ST,WB,Weekday,Local,4,3,0,23
BX36,43714,103285,13,E TREMONT AV/LELAND AV,WB,Weekday,Local,4,0,0,23
BX36,43715,103731,14,E TREMONT AV/ST LAWRENCE AV,WB,Weekday,Local,4,2,0,23
BX36,15788,101448,15,E TREMONT AV/MORRIS PK AV,WB,Weekday,Local,4,0,1,21
BX36,43717,104117,16,E TREMONT AV/DEVOE AV,WB,Weekday,Local,4,2,3,18
BX36,43718,102529,18,E TREMONT AV/BRYANT AV,WB,Weekday,Local,4,4,2,17
BX36,21268,102532,20,E TREMONT AV/PROSPECT AV,WB,Weekday,Local,4,3,0,19
BX36,22027,102533,21,E TREMONT AV/CROTONA AV,WB,Weekday,Local,4,7,0,26
BX36,44216,102534,22,E TREMONT AV/ARTHUR AV,WB,Weekday,Local,4,4,0,29
BX36,44232,103446,23,E TREMONT AV/3 AV,WB,Weekday,Local,4,3,1,31
BX36,48688,102446,25,E TREMONT AV/ANTHONY AV,WB,Weekday,Local,4,5,6,30
BX36,48689,102447,26,E TREMONT AV/GRAND CONCOURSE E,WB,Weekday,Local,4,5,10,24
BX36,48692,102450,27,W TREMONT AV/DAVIDSON AV,WB,Weekday,Local,4,5,8,20
BX36,48693,102451,28,W TREMONT AV/W 177 ST,WB,Weekday,Local,4,1,1,20
BX36,43537,100195,29,UNIVERSITY AV/W TREMONT AV,WB,Weekday,Local,4,8,0,26
BX36,59050,104326,30,UNIVERSITY AV/W 176 ST,WB,Weekday,Local,4,2,0,26
BX36,43541,100199,32,UNIVERSITY AV/WASHINGTON BRIDGE,WB,Weekday,Local,4,1,0,29
BX36,10921,403652,33,W 181 ST/AMSTERDAM AV,WB,Weekday,Local,4,0,4,24
BX36,43550,403653,34,W 181 ST/ST NICHOLAS AV,WB,Weekday,Local,4,0,6,16
BX36,48143,404324,35,WADSWORTH AV/W 181 ST,WB,Weekday,Local,4,0,7,9
BX36,21262,403670,36,W 179 ST/BROADWAY,WB,Weekday,Local,4,0,9,0
BX36,11105,102411,1,RANDALL AV/OLMSTEAD AV,WB,Weekday,Local,5,48,0,48
BX36,11107,102413,2,PUGSLEY AV/SEWARD AV,WB,Weekday,Local,5,21,1,68
BX36,43718,102529,2,E TREMONT AV/BRYANT AV,WB,Weekday,Local,5,1,0,2
BX36,43852,104058,3,LAFAYETTE AV/PUGSLEY AV,WB,Weekday,Local,5,19,1,84
BX36,8201,102985,4,WHITE PLAINS RD/LAFAYETTE AV,WB,Weekday,Local,5,38,2,119
BX36,47393,102416,5,WHITE PLAINS RD/STORY AV,WB,Weekday,Local,5,19,1,136
BX36,47394,102417,6,WHITE PLAINS RD/BRUCKNER BL,WB,Weekday,Local,5,10,2,144
BX36,47395,102418,7,WHITE PLAINS RD/WATSON AV,WB,Weekday,Local,5,4,1,144
BX36,47396,102419,8,WHITE PLAINS RD/GLEASON AV,WB,Weekday,Local,5,12,32,123
BX36,47404,103321,9,WHITE PLAINS RD/WESTCHESTER AV,WB,Weekday,Local,5,20,46,94
BX36,8207,103322,10,WHITE PLAINS RD/WOOD AV,WB,Weekday,Local,5,3,29,69
BX36,47420,103902,11,WHITE PLAINS RD/ARCHER ST,WB,Weekday,Local,5,6,1,73
BX36,8208,103323,12,WHITE PLAINS RD/GUERLAIN ST,WB,Weekday,Local,5,6,1,76
BX36,43714,103285,13,E TREMONT AV/LELAND AV,WB,Weekday,Local,5,0,1,74
BX36,43715,103731,14,E TREMONT AV/ST LAWRENCE AV,WB,Weekday,Local,5,6,2,77
BX36,15788,101448,15,E TREMONT AV/MORRIS PK AV,WB,Weekday,Local,5,7,4,79
BX36,43717,104117,16,E TREMONT AV/DEVOE AV,WB,Weekday,Local,5,9,5,82
BX36,43718,102529,18,E TREMONT AV/BRYANT AV,WB,Weekday,Local,5,8,8,86
BX36,21268,102532,20,E TREMONT AV/PROSPECT AV,WB,Weekday,Local,5,17,2,101
BX36,22027,102533,21,E TREMONT AV/CROTONA AV,WB,Weekday,Local,5,24,3,120
BX36,44216,102534,22,E TREMONT AV/ARTHUR AV,WB,Weekday,Local,5,15,3,129
BX36,44232,103446,23,E TREMONT AV/3 AV,WB,Weekday,Local,5,26,6,145
BX36,48688,102446,25,E TREMONT AV/ANTHONY AV,WB,Weekday,Local,5,8,22,129
BX36,48689,102447,26,E TREMONT AV/GRAND CONCOURSE E,WB,Weekday,Local,5,17,37,105
BX36,48692,102450,27,W TREMONT AV/DAVIDSON AV,WB,Weekday,Local,5,15,24,89
BX36,48693,102451,28,W TREMONT AV/W 177 ST,WB,Weekday,Local,5,4,3,86
BX36,43537,100195,29,UNIVERSITY AV/W TREMONT AV,WB,Weekday,Local,5,22,4,98
BX36,59050,104326,30,UNIVERSITY AV/W 176 ST,WB,Weekday,Local,5,7,4,99
BX36,43541,100199,32,UNIVERSITY AV/WASHINGTON BRIDGE,WB,Weekday,Local,5,7,5,109
BX36,10921,403652,33,W 181 ST/AMSTERDAM AV,WB,Weekday,Local,5,2,16,90
BX36,43550,403653,34,W 181 ST/ST NICHOLAS AV,WB,Weekday,Local,5,0,23,64
BX36,48143,404324,35,WADSWORTH AV/W 181 ST,WB,Weekday,Local,5,0,32,32
BX36,21262,403670,36,W 179 ST/BROADWAY,WB,Weekday,Local,5,0,32,0
BX36,11105,102411,1,RANDALL AV/OLMSTEAD AV,WB,Weekday,Local,6,68,0,68
BX36,11105,102411,1,RANDALL AV/OLMSTEAD AV,WB,Weekday,Limited,6,39,0,39
BX36,11107,102413,2,PUGSLEY AV/SEWARD AV,WB,Weekday,Local,6,30,3,96
BX36,43718,102529,2,E TREMONT AV/BRYANT AV,WB,Weekday,Local,6,19,1,34
BX36,11107,102413,2,PUGSLEY AV/SEWARD AV,WB,Weekday,Limited,6,15,2,49
BX36,43852,104058,3,LAFAYETTE AV/PUGSLEY AV,WB,Weekday,Local,6,21,4,111
BX36,43852,104058,3,LAFAYETTE AV/PUGSLEY AV,WB,Weekday,Limited,6,10,1,50
BX36,21268,102532,4,E TREMONT AV/PROSPECT AV,WB,Weekday,Local,6,11,3,56
BX36,8201,102985,4,WHITE PLAINS RD/LAFAYETTE AV,WB,Weekday,Local,6,51,4,156
BX36,8201,102985,4,WHITE PLAINS RD/LAFAYETTE AV,WB,Weekday,Limited,6,22,1,68
BX36,47393,102416,5,WHITE PLAINS RD/STORY AV,WB,Weekday,Local,6,35,5,179
BX36,22027,102533,5,E TREMONT AV/CROTONA AV,WB,Weekday,Local,6,25,4,78
BX36,47393,102416,5,WHITE PLAINS RD/STORY AV,WB,Weekday,Limited,6,19,3,73
BX36,47394,102417,6,WHITE PLAINS RD/BRUCKNER BL,WB,Weekday,Local,6,13,4,185
BX36,44216,102534,6,E TREMONT AV/ARTHUR AV,WB,Weekday,Local,6,19,2,94
BX36,47404,103321,6,WHITE PLAINS RD/WESTCHESTER AV,WB,Weekday,Limited,6,18,27,44
BX36,47395,102418,7,WHITE PLAINS RD/WATSON AV,WB,Weekday,Local,6,13,5,195
BX36,44232,103446,7,E TREMONT AV/3 AV,WB,Weekday,Local,6,24,4,114
BX36,8208,103323,7,WHITE PLAINS RD/GUERLAIN ST,WB,Weekday,Limited,6,11,2,42
BX36,47396,102419,8,WHITE PLAINS RD/GLEASON AV,WB,Weekday,Local,6,15,38,171
BX36,48688,102446,9,E TREMONT AV/ANTHONY AV,WB,Weekday,Local,6,16,16,123
BX36,47404,103321,9,WHITE PLAINS RD/WESTCHESTER AV,WB,Weekday,Local,6,33,60,140
BX36,48689,102447,10,E TREMONT AV/GRAND CONCOURSE E,WB,Weekday,Local,6,19,35,107
BX36,8207,103322,10,WHITE PLAINS RD/WOOD AV,WB,Weekday,Local,6,8,29,115
BX36,48692,102450,11,W TREMONT AV/DAVIDSON AV,WB,Weekday,Local,6,19,22,103
BX36,47420,103902,11,WHITE PLAINS RD/ARCHER ST,WB,Weekday,Local,6,12,2,124
BX36,48693,102451,12,W TREMONT AV/W 177 ST,WB,Weekday,Local,6,18,6,113
BX36,8208,103323,12,WHITE PLAINS RD/GUERLAIN ST,WB,Weekday,Local,6,22,4,140
BX36,43537,100195,13,UNIVERSITY AV/W TREMONT AV,WB,Weekday,Local,6,33,7,135
BX36,43714,103285,13,E TREMONT AV/LELAND AV,WB,Weekday,Local,6,1,2,134
BX36,43715,103731,14,E TREMONT AV/ST LAWRENCE AV,WB,Weekday,Local,6,25,8,150
BX36,59050,104326,14,UNIVERSITY AV/W 176 ST,WB,Weekday,Local,6,14,5,140
BX36,15788,101448,15,E TREMONT AV/MORRIS PK AV,WB,Weekday,Local,6,25,10,167
BX36,43541,100199,16,UNIVERSITY AV/WASHINGTON BRIDGE,WB,Weekday,Local,6,12,7,143
BX36,43717,104117,16,E TREMONT AV/DEVOE AV,WB,Weekday,Local,6,26,11,179
BX36,10921,403652,17,W 181 ST/AMSTERDAM AV,WB,Weekday,Local,6,2,27,108
BX36,43718,102529,18,E TREMONT AV/BRYANT AV,WB,Weekday,Local,6,16,9,208
BX36,43550,403653,18,W 181 ST/ST NICHOLAS AV,WB,Weekday,Local,6,0,32,72
BX36,48143,404324,19,WADSWORTH AV/W 181 ST,WB,Weekday,Local,6,1,35,36
BX36,21268,102532,20,E TREMONT AV/PROSPECT AV,WB,Weekday,Local,6,17,12,215
BX36,21262,403670,20,W 179 ST/BROADWAY,WB,Weekday,Local,6,0,34,0
BX36,22027,102533,21,E TREMONT AV/CROTONA AV,WB,Weekday,Local,6,34,8,235
BX36,44216,102534,22,E TREMONT AV/ARTHUR AV,WB,Weekday,Local,6,30,10,246
BX36,44232,103446,23,E TREMONT AV/3 AV,WB,Weekday,Local,6,33,15,257
BX36,48688,102446,25,E TREMONT AV/ANTHONY AV,WB,Weekday,Local,6,9,25,227
BX36,48689,102447,26,E TREMONT AV/GRAND CONCOURSE E,WB,Weekday,Local,6,29,52,195
BX36,48692,102450,27,W TREMONT AV/DAVIDSON AV,WB,Weekday,Local,6,25,31,175
BX36,48693,102451,28,W TREMONT AV/W 177 ST,WB,Weekday,Local,6,9,11,172
BX36,43537,100195,29,UNIVERSITY AV/W TREMONT AV,WB,Weekday,Local,6,54,13,217
BX36,59050,104326,30,UNIVERSITY AV/W 176 ST,WB,Weekday,Local,6,17,7,225
BX36,43541,100199,32,UNIVERSITY AV/WASHINGTON BRIDGE,WB,Weekday,Local,6,18,14,235
BX36,10921,403652,33,W 181 ST/AMSTERDAM AV,WB,Weekday,Local,6,3,43,186
BX36,43550,403653,34,W 181 ST/ST NICHOLAS AV,WB,Weekday,Local,6,1,57,124
BX36,48143,404324,35,WADSWORTH AV/W 181 ST,WB,Weekday,Local,6,0,54,69
BX36,21262,403670,36,W 179 ST/BROADWAY,WB,Weekday,Local,6,0,69,0
BX36,11105,102411,1,RANDALL AV/OLMSTEAD AV,WB,Weekday,Local,7,74,0,74
BX36,11105,102411,1,RANDALL AV/OLMSTEAD AV,WB,Weekday,Limited,7,69,0,69
BX36,11107,102413,2,PUGSLEY AV/SEWARD AV,WB,Weekday,Local,7,34,2,107
BX36,11107,102413,2,PUGSLEY AV/SEWARD AV,WB,Weekday,Limited,7,31,2,96
BX36,43852,104058,3,LAFAYETTE AV/PUGSLEY AV,WB,Weekday,Local,7,19,1,122
BX36,43852,104058,3,LAFAYETTE AV/PUGSLEY AV,WB,Weekday,Limited,7,19,3,112
BX36,8201,102985,4,WHITE PLAINS RD/LAFAYETTE AV,WB,Weekday,Local,7,58,3,176
BX36,8201,102985,4,WHITE PLAINS RD/LAFAYETTE AV,WB,Weekday,Limited,7,65,7,172
BX36,47393,102416,5,WHITE PLAINS RD/STORY AV,WB,Weekday,Local,7,45,5,221
BX36,47393,102416,5,WHITE PLAINS RD/STORY AV,WB,Weekday,Limited,7,56,12,219
BX36,47394,102417,6,WHITE PLAINS RD/BRUCKNER BL,WB,Weekday,Local,7,16,4,234
BX36,47404,103321,6,WHITE PLAINS RD/WESTCHESTER AV,WB,Weekday,Limited,7,62,131,150
BX36,47395,102418,7,WHITE PLAINS RD/WATSON AV,WB,Weekday,Local,7,15,5,241
BX36,8208,103323,7,WHITE PLAINS RD/GUERLAIN ST,WB,Weekday,Limited,7,64,14,202
BX36,47396,102419,8,WHITE PLAINS RD/GLEASON AV,WB,Weekday,Local,7,12,41,209
BX36,47404,103321,9,WHITE PLAINS RD/WESTCHESTER AV,WB,Weekday,Local,7,53,80,183
BX36,48689,102447,10,E TREMONT AV/GRAND CONCOURSE E,WB,Weekday,Local,7,0,0,0
BX36,8207,103322,10,WHITE PLAINS RD/WOOD AV,WB,Weekday,Local,7,15,35,163
BX36,22027,102533,10,E TREMONT AV/CROTONA AV,WB,Weekday,Limited,7,57,30,285
BX36,48692,102450,11,W TREMONT AV/DAVIDSON AV,WB,Weekday,Local,7,0,0,1
BX36,47420,103902,11,WHITE PLAINS RD/ARCHER ST,WB,Weekday,Local,7,21,4,181
BX36,44232,103446,11,E TREMONT AV/3 AV,WB,Weekday,Limited,7,49,26,286
BX36,48693,102451,12,W TREMONT AV/W 177 ST,WB,Weekday,Local,7,0,0,3
BX36,8208,103323,12,WHITE PLAINS RD/GUERLAIN ST,WB,Weekday,Local,7,30,6,200
BX36,43537,100195,13,UNIVERSITY AV/W TREMONT AV,WB,Weekday,Local,7,2,0,7
BX36,43714,103285,13,E TREMONT AV/LELAND AV,WB,Weekday,Local,7,3,4,200
BX36,48689,102447,13,E TREMONT AV/GRAND CONCOURSE E,WB,Weekday,Limited,7,46,80,222
BX36,43715,103731,14,E TREMONT AV/ST LAWRENCE AV,WB,Weekday,Local,7,50,12,237
BX36,59050,104326,14,UNIVERSITY AV/W 176 ST,WB,Weekday,Local,7,1,0,12
BX36,48692,102450,14,W TREMONT AV/DAVIDSON AV,WB,Weekday,Limited,7,33,45,196
BX36,15788,101448,15,E TREMONT AV/MORRIS PK AV,WB,Weekday,Local,7,43,16,256
BX36,43537,100195,15,UNIVERSITY AV/W TREMONT AV,WB,Weekday,Limited,7,42,27,194
BX36,43541,100199,16,UNIVERSITY AV/WASHINGTON BRIDGE,WB,Weekday,Local,7,3,1,28
BX36,43717,104117,16,E TREMONT AV/DEVOE AV,WB,Weekday,Local,7,35,20,263
BX36,10921,403652,17,W 181 ST/AMSTERDAM AV,WB,Weekday,Local,7,0,7,31
BX36,10921,403652,17,W 181 ST/AMSTERDAM AV,WB,Weekday,Limited,7,1,43,118
BX36,43718,102529,18,E TREMONT AV/BRYANT AV,WB,Weekday,Local,7,31,19,303
BX36,43550,403653,18,W 181 ST/ST NICHOLAS AV,WB,Weekday,Local,7,0,12,23
BX36,43550,403653,18,W 181 ST/ST NICHOLAS AV,WB,Weekday,Limited,7,0,41,70
BX36,48143,404324,19,WADSWORTH AV/W 181 ST,WB,Weekday,Local,7,0,14,12
BX36,48143,404324,19,WADSWORTH AV/W 181 ST,WB,Weekday,Limited,7,0,39,28
BX36,21268,102532,20,E TREMONT AV/PROSPECT AV,WB,Weekday,Local,7,34,33,321
BX36,21262,403670,20,W 179 ST/BROADWAY,WB,Weekday,Local,7,0,13,0
BX36,21262,403670,20,W 179 ST/BROADWAY,WB,Weekday,Limited,7,0,26,0
BX36,22027,102533,21,E TREMONT AV/CROTONA AV,WB,Weekday,Local,7,55,26,357
BX36,44216,102534,22,E TREMONT AV/ARTHUR AV,WB,Weekday,Local,7,51,19,391
BX36,44232,103446,23,E TREMONT AV/3 AV,WB,Weekday,Local,7,59,32,419
BX36,48688,102446,25,E TREMONT AV/ANTHONY AV,WB,Weekday,Local,7,26,53,402
BX36,48689,102447,26,E TREMONT AV/GRAND CONCOURSE E,WB,Weekday,Local,7,70,115,354
BX36,48692,102450,27,W TREMONT AV/DAVIDSON AV,WB,Weekday,Local,7,47,74,313
BX36,48693,102451,28,W TREMONT AV/W 177 ST,WB,Weekday,Local,7,13,21,299
BX36,43537,100195,29,UNIVERSITY AV/W TREMONT AV,WB,Weekday,Local,7,79,31,344
BX36,59050,104326,30,UNIVERSITY AV/W 176 ST,WB,Weekday,Local,7,28,12,359
BX36,43541,100199,32,UNIVERSITY AV/WASHINGTON BRIDGE,WB,Weekday,Local,7,39,30,393
BX36,10921,403652,33,W 181 ST/AMSTERDAM AV,WB,Weekday,Local,7,3,89,288
BX36,43550,403653,34,W 181 ST/ST NICHOLAS AV,WB,Weekday,Local,7,0,108,176
BX36,48143,404324,35,WADSWORTH AV/W 181 ST,WB,Weekday,Local,7,0,96,81
BX36,21262,403670,36,W 179 ST/BROADWAY,WB,Weekday,Local,7,0,82,0
BX36,11105,102411,1,RANDALL AV/OLMSTEAD AV,WB,Weekday,Local,8,43,0,43
BX36,11105,102411,1,RANDALL AV/OLMSTEAD AV,WB,Weekday,Limited,8,36,0,36
BX36,11107,102413,2,PUGSLEY AV/SEWARD AV,WB,Weekday,Local,8,22,2,64
BX36,11107,102413,2,PUGSLEY AV/SEWARD AV,WB,Weekday,Limited,8,22,2,57
BX36,43852,104058,3,LAFAYETTE AV/PUGSLEY AV,WB,Weekday,Local,8,11,1,76
BX36,43852,104058,3,LAFAYETTE AV/PUGSLEY AV,WB,Weekday,Limited,8,17,2,75
BX36,8201,102985,4,WHITE PLAINS RD/LAFAYETTE AV,WB,Weekday,Local,8,35,3,111
BX36,8201,102985,4,WHITE PLAINS RD/LAFAYETTE AV,WB,Weekday,Limited,8,41,4,115
BX36,47393,102416,5,WHITE PLAINS RD/STORY AV,WB,Weekday,Local,8,24,4,132
BX36,47393,102416,5,WHITE PLAINS RD/STORY AV,WB,Weekday,Limited,8,38,8,149
BX36,47394,102417,6,WHITE PLAINS RD/BRUCKNER BL,WB,Weekday,Local,8,12,3,145
BX36,47404,103321,6,WHITE PLAINS RD/WESTCHESTER AV,WB,Weekday,Limited,8,38,87,108
BX36,47395,102418,7,WHITE PLAINS RD/WATSON AV,WB,Weekday,Local,8,9,2,156
BX36,8208,103323,7,WHITE PLAINS RD/GUERLAIN ST,WB,Weekday,Limited,8,48,13,150
BX36,47396,102419,8,WHITE PLAINS RD/GLEASON AV,WB,Weekday,Local,8,8,26,138
BX36,47404,103321,9,WHITE PLAINS RD/WESTCHESTER AV,WB,Weekday,Local,8,32,48,124
BX36,8207,103322,10,WHITE PLAINS RD/WOOD AV,WB,Weekday,Local,8,9,21,116
BX36,22027,102533,10,E TREMONT AV/CROTONA AV,WB,Weekday,Limited,8,51,32,238
BX36,47420,103902,11,WHITE PLAINS RD/ARCHER ST,WB,Weekday,Local,8,10,3,124
BX36,44232,103446,11,E TREMONT AV/3 AV,WB,Weekday,Limited,8,51,32,271
BX36,8208,103323,12,WHITE PLAINS RD/GUERLAIN ST,WB,Weekday,Local,8,20,4,141
BX36,43714,103285,13,E TREMONT AV/LELAND AV,WB,Weekday,Local,8,1,4,142
BX36,48689,102447,13,E TREMONT AV/GRAND CONCOURSE E,WB,Weekday,Limited,8,45,105,250
BX36,43715,103731,14,E TREMONT AV/ST LAWRENCE AV,WB,Weekday,Local,8,25,8,160
BX36,48692,102450,14,W TREMONT AV/DAVIDSON AV,WB,Weekday,Limited,8,39,49,247
BX36,15788,101448,15,E TREMONT AV/MORRIS PK AV,WB,Weekday,Local,8,25,9,177
BX36,43537,100195,15,UNIVERSITY AV/W TREMONT AV,WB,Weekday,Limited,8,46,42,257
BX36,43717,104117,16,E TREMONT AV/DEVOE AV,WB,Weekday,Local,8,29,12,198
BX36,10921,403652,17,W 181 ST/AMSTERDAM AV,WB,Weekday,Limited,8,1,58,214
BX36,43718,102529,18,E TREMONT AV/BRYANT AV,WB,Weekday,Local,8,26,11,245
BX36,43550,403653,18,W 181 ST/ST NICHOLAS AV,WB,Weekday,Limited,8,1,76,142
BX36,48143,404324,19,WADSWORTH AV/W 181 ST,WB,Weekday,Limited,8,0,81,63
BX36,21268,102532,20,E TREMONT AV/PROSPECT AV,WB,Weekday,Local,8,25,23,262
BX36,21262,403670,20,W 179 ST/BROADWAY,WB,Weekday,Limited,8,0,64,0
BX36,22027,102533,21,E TREMONT AV/CROTONA AV,WB,Weekday,Local,8,35,22,274
BX36,44216,102534,22,E TREMONT AV/ARTHUR AV,WB,Weekday,Local,8,27,18,284
BX36,44232,103446,23,E TREMONT AV/3 AV,WB,Weekday,Local,8,39,26,297
BX36,48688,102446,25,E TREMONT AV/ANTHONY AV,WB,Weekday,Local,8,19,44,294
BX36,48689,102447,26,E TREMONT AV/GRAND CONCOURSE E,WB,Weekday,Local,8,51,80,275
BX36,48692,102450,27,W TREMONT AV/DAVIDSON AV,WB,Weekday,Local,8,44,64,272
BX36,48693,102451,28,W TREMONT AV/W 177 ST,WB,Weekday,Local,8,13,27,264
BX36,43537,100195,29,UNIVERSITY AV/W TREMONT AV,WB,Weekday,Local,8,46,36,275
BX36,59050,104326,30,UNIVERSITY AV/W 176 ST,WB,Weekday,Local,8,18,15,278
BX36,43541,100199,32,UNIVERSITY AV/WASHINGTON BRIDGE,WB,Weekday,Local,8,19,32,280
BX36,10921,403652,33,W 181 ST/AMSTERDAM AV,WB,Weekday,Local,8,2,72,233
BX36,43550,403653,34,W 181 ST/ST NICHOLAS AV,WB,Weekday,Local,8,0,96,140
BX36,48143,404324,35,WADSWORTH AV/W 181 ST,WB,Weekday,Local,8,1,79,63
BX36,21262,403670,36,W 179 ST/BROADWAY,WB,Weekday,Local,8,0,65,0
BX36,11105,102411,1,RANDALL AV/OLMSTEAD AV,WB,Weekday,Local,9,39,0,39
BX36,11105,102411,1,RANDALL AV/OLMSTEAD AV,WB,Weekday,Limited,9,2,0,2
BX36,11107,102413,2,PUGSLEY AV/SEWARD AV,WB,Weekday,Local,9,23,1,62
BX36,11107,102413,2,PUGSLEY AV/SEWARD AV,WB,Weekday,Limited,9,1,0,3
BX36,43852,104058,3,LAFAYETTE AV/PUGSLEY AV,WB,Weekday,Local,9,12,1,72
BX36,43852,104058,3,LAFAYETTE AV/PUGSLEY AV,WB,Weekday,Limited,9,2,0,6
BX36,8201,102985,4,WHITE PLAINS RD/LAFAYETTE AV,WB,Weekday,Local,9,41,2,111
BX36,8201,102985,4,WHITE PLAINS RD/LAFAYETTE AV,WB,Weekday,Limited,9,7,0,13
BX36,47393,102416,5,WHITE PLAINS RD/STORY AV,WB,Weekday,Local,9,30,2,138
BX36,47393,102416,5,WHITE PLAINS RD/STORY AV,WB,Weekday,Limited,9,3,1,16
BX36,47394,102417,6,WHITE PLAINS RD/BRUCKNER BL,WB,Weekday,Local,9,11,3,144
BX36,47404,103321,6,WHITE PLAINS RD/WESTCHESTER AV,WB,Weekday,Limited,9,5,10,17
BX36,47395,102418,7,WHITE PLAINS RD/WATSON AV,WB,Weekday,Local,9,5,4,145
BX36,8208,103323,7,WHITE PLAINS RD/GUERLAIN ST,WB,Weekday,Limited,9,7,1,27
BX36,47396,102419,8,WHITE PLAINS RD/GLEASON AV,WB,Weekday,Local,9,13,22,133
BX36,47404,103321,9,WHITE PLAINS RD/WESTCHESTER AV,WB,Weekday,Local,9,41,43,131
BX36,8207,103322,10,WHITE PLAINS RD/WOOD AV,WB,Weekday,Local,9,8,21,117
BX36,22027,102533,10,E TREMONT AV/CROTONA AV,WB,Weekday,Limited,9,13,10,73
BX36,47420,103902,11,WHITE PLAINS RD/ARCHER ST,WB,Weekday,Local,9,5,3,119
BX36,44232,103446,11,E TREMONT AV/3 AV,WB,Weekday,Limited,9,21,9,97
BX36,8208,103323,12,WHITE PLAINS RD/GUERLAIN ST,WB,Weekday,Local,9,18,5,132
BX36,43714,103285,13,E TREMONT AV/LELAND AV,WB,Weekday,Local,9,1,3,130
BX36,48689,102447,13,E TREMONT AV/GRAND CONCOURSE E,WB,Weekday,Limited,9,19,42,104
BX36,43715,103731,14,E TREMONT AV/ST LAWRENCE AV,WB,Weekday,Local,9,17,8,139
BX36,48692,102450,14,W TREMONT AV/DAVIDSON AV,WB,Weekday,Limited,9,22,22,111
BX36,15788,101448,15,E TREMONT AV/MORRIS PK AV,WB,Weekday,Local,9,19,7,147
BX36,43537,100195,15,UNIVERSITY AV/W TREMONT AV,WB,Weekday,Limited,9,22,17,126
BX36,43717,104117,16,E TREMONT AV/DEVOE AV,WB,Weekday,Local,9,25,11,161
BX36,10921,403652,17,W 181 ST/AMSTERDAM AV,WB,Weekday,Limited,9,1,36,103
BX36,43718,102529,18,E TREMONT AV/BRYANT AV,WB,Weekday,Local,9,21,11,215
BX36,43550,403653,18,W 181 ST/ST NICHOLAS AV,WB,Weekday,Limited,9,0,43,62
BX36,48143,404324,19,WADSWORTH AV/W 181 ST,WB,Weekday,Limited,9,0,37,26
BX36,21268,102532,20,E TREMONT AV/PROSPECT AV,WB,Weekday,Local,9,27,18,231
BX36,21262,403670,20,W 179 ST/BROADWAY,WB,Weekday,Limited,9,0,28,0
BX36,22027,102533,21,E TREMONT AV/CROTONA AV,WB,Weekday,Local,9,32,14,248
BX36,44216,102534,22,E TREMONT AV/ARTHUR AV,WB,Weekday,Local,9,23,16,249
BX36,44232,103446,23,E TREMONT AV/3 AV,WB,Weekday,Local,9,34,21,269
BX36,48688,102446,25,E TREMONT AV/ANTHONY AV,WB,Weekday,Local,9,12,27,253
BX36,48689,102447,26,E TREMONT AV/GRAND CONCOURSE E,WB,Weekday,Local,9,35,65,217
BX36,48692,102450,27,W TREMONT AV/DAVIDSON AV,WB,Weekday,Local,9,27,45,197
BX36,48693,102451,28,W TREMONT AV/W 177 ST,WB,Weekday,Local,9,10,14,194
BX36,43537,100195,29,UNIVERSITY AV/W TREMONT AV,WB,Weekday,Local,9,44,16,226
BX36,59050,104326,30,UNIVERSITY AV/W 176 ST,WB,Weekday,Local,9,11,11,226
BX36,43541,100199,32,UNIVERSITY AV/WASHINGTON BRIDGE,WB,Weekday,Local,9,12,22,217
BX36,10921,403652,33,W 181 ST/AMSTERDAM AV,WB,Weekday,Local,9,4,50,183
BX36,43550,403653,34,W 181 ST/ST NICHOLAS AV,WB,Weekday,Local,9,0,71,117
BX36,48143,404324,35,WADSWORTH AV/W 181 ST,WB,Weekday,Local,9,0,65,51
BX36,21262,403670,36,W 179 ST/BROADWAY,WB,Weekday,Local,9,0,53,0
BX36,11105,102411,1,RANDALL AV/OLMSTEAD AV,WB,Weekday,Local,10,29,0,29
BX36,11107,102413,2,PUGSLEY AV/SEWARD AV,WB,Weekday,Local,10,19,0,45
BX36,43852,104058,3,LAFAYETTE AV/PUGSLEY AV,WB,Weekday,Local,10,8,1,51
BX36,8201,102985,4,WHITE PLAINS RD/LAFAYETTE AV,WB,Weekday,Local,10,36,2,87
BX36,47393,102416,5,WHITE PLAINS RD/STORY AV,WB,Weekday,Local,10,21,2,104
BX36,47394,102417,6,WHITE PLAINS RD/BRUCKNER BL,WB,Weekday,Local,10,9,4,109
BX36,47395,102418,7,WHITE PLAINS RD/WATSON AV,WB,Weekday,Local,10,6,3,113
BX36,47396,102419,8,WHITE PLAINS RD/GLEASON AV,WB,Weekday,Local,10,9,19,104
BX36,47404,103321,9,WHITE PLAINS RD/WESTCHESTER AV,WB,Weekday,Local,10,29,39,96
BX36,8207,103322,10,WHITE PLAINS RD/WOOD AV,WB,Weekday,Local,10,7,17,89
BX36,47420,103902,11,WHITE PLAINS RD/ARCHER ST,WB,Weekday,Local,10,5,5,88
BX36,8208,103323,12,WHITE PLAINS RD/GUERLAIN ST,WB,Weekday,Local,10,12,4,96
BX36,43714,103285,13,E TREMONT AV/LELAND AV,WB,Weekday,Local,10,1,2,98
BX36,48689,102447,13,E TREMONT AV/GRAND CONCOURSE E,WB,Weekday,Limited,10,0,0,1
BX36,43715,103731,14,E TREMONT AV/ST LAWRENCE AV,WB,Weekday,Local,10,13,5,105
BX36,48692,102450,14,W TREMONT AV/DAVIDSON AV,WB,Weekday,Limited,10,0,0,1
BX36,15788,101448,15,E TREMONT AV/MORRIS PK AV,WB,Weekday,Local,10,18,7,122
BX36,43537,100195,15,UNIVERSITY AV/W TREMONT AV,WB,Weekday,Limited,10,0,0,2
BX36,43717,104117,16,E TREMONT AV/DEVOE AV,WB,Weekday,Local,10,25,7,140
BX36,10921,403652,17,W 181 ST/AMSTERDAM AV,WB,Weekday,Limited,10,0,0,4
BX36,43718,102529,18,E TREMONT AV/BRYANT AV,WB,Weekday,Local,10,16,11,178
BX36,43550,403653,18,W 181 ST/ST NICHOLAS AV,WB,Weekday,Limited,10,0,1,3
BX36,48143,404324,19,WADSWORTH AV/W 181 ST,WB,Weekday,Limited,10,0,2,2
BX36,21268,102532,20,E TREMONT AV/PROSPECT AV,WB,Weekday,Local,10,24,15,197
BX36,21262,403670,20,W 179 ST/BROADWAY,WB,Weekday,Limited,10,0,2,0
BX36,22027,102533,21,E TREMONT AV/CROTONA AV,WB,Weekday,Local,10,31,17,215
BX36,44216,102534,22,E TREMONT AV/ARTHUR AV,WB,Weekday,Local,10,24,15,225
BX36,44232,103446,23,E TREMONT AV/3 AV,WB,Weekday,Local,10,36,17,238
BX36,48688,102446,25,E TREMONT AV/ANTHONY AV,WB,Weekday,Local,10,12,29,238
BX36,48689,102447,26,E TREMONT AV/GRAND CONCOURSE E,WB,Weekday,Local,10,49,60,233
BX36,48692,102450,27,W TREMONT AV/DAVIDSON AV,WB,Weekday,Local,10,36,42,232
BX36,48693,102451,28,W TREMONT AV/W 177 ST,WB,Weekday,Local,10,14,14,230
BX36,43537,100195,29,UNIVERSITY AV/W TREMONT AV,WB,Weekday,Local,10,38,25,241
BX36,59050,104326,30,UNIVERSITY AV/W 176 ST,WB,Weekday,Local,10,11,16,233
BX36,43541,100199,32,UNIVERSITY AV/WASHINGTON BRIDGE,WB,Weekday,Local,10,17,22,236
BX36,10921,403652,33,W 181 ST/AMSTERDAM AV,WB,Weekday,Local,10,3,54,191
BX36,43550,403653,34,W 181 ST/ST NICHOLAS AV,WB,Weekday,Local,10,1,67,122
BX36,48143,404324,35,WADSWORTH AV/W 181 ST,WB,Weekday,Local,10,1,71,49
BX36,21262,403670,36,W 179 ST/BROADWAY,WB,Weekday,Local,10,0,52,0
BX36,11105,102411,1,RANDALL AV/OLMSTEAD AV,WB,Weekday,Local,11,39,0,39
BX36,11107,102413,2,PUGSLEY AV/SEWARD AV,WB,Weekday,Local,11,13,1,52
BX36,43852,104058,3,LAFAYETTE AV/PUGSLEY AV,WB,Weekday,Local,11,10,1,61
BX36,8201,102985,4,WHITE PLAINS RD/LAFAYETTE AV,WB,Weekday,Local,11,35,1,96
BX36,47393,102416,5,WHITE PLAINS RD/STORY AV,WB,Weekday,Local,11,25,5,117
BX36,47394,102417,6,WHITE PLAINS RD/BRUCKNER BL,WB,Weekday,Local,11,8,2,125
BX36,47395,102418,7,WHITE PLAINS RD/WATSON AV,WB,Weekday,Local,11,7,3,129
BX36,47396,102419,8,WHITE PLAINS RD/GLEASON AV,WB,Weekday,Local,11,8,22,116
BX36,47404,103321,9,WHITE PLAINS RD/WESTCHESTER AV,WB,Weekday,Local,11,25,39,103
BX36,8207,103322,10,WHITE PLAINS RD/WOOD AV,WB,Weekday,Local,11,6,14,96
BX36,47420,103902,11,WHITE PLAINS RD/ARCHER ST,WB,Weekday,Local,11,7,3,100
BX36,8208,103323,12,WHITE PLAINS RD/GUERLAIN ST,WB,Weekday,Local,11,14,3,112
BX36,43714,103285,13,E TREMONT AV/LELAND AV,WB,Weekday,Local,11,2,4,109
BX36,43715,103731,14,E TREMONT AV/ST LAWRENCE AV,WB,Weekday,Local,11,19,6,122
BX36,15788,101448,15,E TREMONT AV/MORRIS PK AV,WB,Weekday,Local,11,17,6,127
BX36,43717,104117,16,E TREMONT AV/DEVOE AV,WB,Weekday,Local,11,22,7,137
BX36,43718,102529,18,E TREMONT AV/BRYANT AV,WB,Weekday,Local,11,15,10,164
BX36,21268,102532,20,E TREMONT AV/PROSPECT AV,WB,Weekday,Local,11,27,15,186
BX36,22027,102533,21,E TREMONT AV/CROTONA AV,WB,Weekday,Local,11,27,14,194
BX36,44216,102534,22,E TREMONT AV/ARTHUR AV,WB,Weekday,Local,11,23,13,202
BX36,44232,103446,23,E TREMONT AV/3 AV,WB,Weekday,Local,11,38,19,217
BX36,48688,102446,25,E TREMONT AV/ANTHONY AV,WB,Weekday,Local,11,14,32,202
BX36,48689,102447,26,E TREMONT AV/GRAND CONCOURSE E,WB,Weekday,Local,11,46,57,192
BX36,48692,102450,27,W TREMONT AV/DAVIDSON AV,WB,Weekday,Local,11,29,38,190
BX36,48693,102451,28,W TREMONT AV/W 177 ST,WB,Weekday,Local,11,10,13,189
BX36,43537,100195,29,UNIVERSITY AV/W TREMONT AV,WB,Weekday,Local,11,36,21,206
BX36,59050,104326,30,UNIVERSITY AV/W 176 ST,WB,Weekday,Local,11,13,11,209
BX36,43541,100199,32,UNIVERSITY AV/WASHINGTON BRIDGE,WB,Weekday,Local,11,13,20,206
BX36,10921,403652,33,W 181 ST/AMSTERDAM AV,WB,Weekday,Local,11,2,49,161
BX36,43550,403653,34,W 181 ST/ST NICHOLAS AV,WB,Weekday,Local,11,2,58,106
BX36,48143,404324,35,WADSWORTH AV/W 181 ST,WB,Weekday,Local,11,1,60,47
BX36,21262,403670,36,W 179 ST/BROADWAY,WB,Weekday,Local,11,0,47,0
BX36,11105,102411,1,RANDALL AV/OLMSTEAD AV,WB,Weekday,Local,12,31,0,31
BX36,11107,102413,2,PUGSLEY AV/SEWARD AV,WB,Weekday,Local,12,12,1,43
BX36,43852,104058,3,LAFAYETTE AV/PUGSLEY AV,WB,Weekday,Local,12,7,1,49
BX36,8201,102985,4,WHITE PLAINS RD/LAFAYETTE AV,WB,Weekday,Local,12,33,1,82
BX36,47393,102416,5,WHITE PLAINS RD/STORY AV,WB,Weekday,Local,12,26,2,104
BX36,47394,102417,6,WHITE PLAINS RD/BRUCKNER BL,WB,Weekday,Local,12,10,2,111
BX36,47395,102418,7,WHITE PLAINS RD/WATSON AV,WB,Weekday,Local,12,5,4,110
BX36,47396,102419,8,WHITE PLAINS RD/GLEASON AV,WB,Weekday,Local,12,7,14,102
BX36,47404,103321,9,WHITE PLAINS RD/WESTCHESTER AV,WB,Weekday,Local,12,28,33,91
BX36,8207,103322,10,WHITE PLAINS RD/WOOD AV,WB,Weekday,Local,12,5,14,83
BX36,47420,103902,11,WHITE PLAINS RD/ARCHER ST,WB,Weekday,Local,12,5,4,85
BX36,8208,103323,12,WHITE PLAINS RD/GUERLAIN ST,WB,Weekday,Local,12,11,3,92
BX36,43714,103285,13,E TREMONT AV/LELAND AV,WB,Weekday,Local,12,1,3,90
BX36,43715,103731,14,E TREMONT AV/ST LAWRENCE AV,WB,Weekday,Local,12,19,4,105
BX36,15788,101448,15,E TREMONT AV/MORRIS PK AV,WB,Weekday,Local,12,17,4,123
BX36,43717,104117,16,E TREMONT AV/DEVOE AV,WB,Weekday,Local,12,32,7,149
BX36,43718,102529,18,E TREMONT AV/BRYANT AV,WB,Weekday,Local,12,17,10,186
BX36,21268,102532,20,E TREMONT AV/PROSPECT AV,WB,Weekday,Local,12,26,15,206
BX36,22027,102533,21,E TREMONT AV/CROTONA AV,WB,Weekday,Local,12,39,15,234
BX36,44216,102534,22,E TREMONT AV/ARTHUR AV,WB,Weekday,Local,12,25,16,243
BX36,44232,103446,23,E TREMONT AV/3 AV,WB,Weekday,Local,12,38,22,264
BX36,48688,102446,25,E TREMONT AV/ANTHONY AV,WB,Weekday,Local,12,16,35,244
BX36,48689,102447,26,E TREMONT AV/GRAND CONCOURSE E,WB,Weekday,Local,12,51,63,221
BX36,48692,102450,27,W TREMONT AV/DAVIDSON AV,WB,Weekday,Local,12,36,41,209
BX36,48693,102451,28,W TREMONT AV/W 177 ST,WB,Weekday,Local,12,10,13,204
BX36,43537,100195,29,UNIVERSITY AV/W TREMONT AV,WB,Weekday,Local,12,30,24,209
BX36,59050,104326,30,UNIVERSITY AV/W 176 ST,WB,Weekday,Local,12,12,11,207
BX36,43541,100199,32,UNIVERSITY AV/WASHINGTON BRIDGE,WB,Weekday,Local,12,12,23,194
BX36,10921,403652,33,W 181 ST/AMSTERDAM AV,WB,Weekday,Local,12,1,39,155
BX36,43550,403653,34,W 181 ST/ST NICHOLAS AV,WB,Weekday,Local,12,1,59,97
BX36,48143,404324,35,WADSWORTH AV/W 181 ST,WB,Weekday,Local,12,0,61,37
BX36,21262,403670,36,W 179 ST/BROADWAY,WB,Weekday,Local,12,0,36,0
BX36,11105,102411,1,RANDALL AV/OLMSTEAD AV,WB,Weekday,Local,13,31,0,31
BX36,11107,102413,2,PUGSLEY AV/SEWARD AV,WB,Weekday,Local,13,19,0,51
BX36,43852,104058,3,LAFAYETTE AV/PUGSLEY AV,WB,Weekday,Local,13,14,1,63
BX36,8201,102985,4,WHITE PLAINS RD/LAFAYETTE AV,WB,Weekday,Local,13,52,3,112
BX36,47393,102416,5,WHITE PLAINS RD/STORY AV,WB,Weekday,Local,13,38,2,147
BX36,47394,102417,6,WHITE PLAINS RD/BRUCKNER BL,WB,Weekday,Local,13,12,2,158
BX36,47395,102418,7,WHITE PLAINS RD/WATSON AV,WB,Weekday,Local,13,10,3,168
BX36,47396,102419,8,WHITE PLAINS RD/GLEASON AV,WB,Weekday,Local,13,10,25,154
BX36,47404,103321,9,WHITE PLAINS RD/WESTCHESTER AV,WB,Weekday,Local,13,42,41,145
BX36,8207,103322,10,WHITE PLAINS RD/WOOD AV,WB,Weekday,Local,13,9,19,133
BX36,47420,103902,11,WHITE PLAINS RD/ARCHER ST,WB,Weekday,Local,13,10,5,137
BX36,8208,103323,12,WHITE PLAINS RD/GUERLAIN ST,WB,Weekday,Local,13,17,5,146
BX36,43714,103285,13,E TREMONT AV/LELAND AV,WB,Weekday,Local,13,1,3,144
BX36,43715,103731,14,E TREMONT AV/ST LAWRENCE AV,WB,Weekday,Local,13,21,8,155
BX36,15788,101448,15,E TREMONT AV/MORRIS PK AV,WB,Weekday,Local,13,19,7,162
BX36,43717,104117,16,E TREMONT AV/DEVOE AV,WB,Weekday,Local,13,30,8,185
BX36,43718,102529,18,E TREMONT AV/BRYANT AV,WB,Weekday,Local,13,24,8,236
BX36,21268,102532,20,E TREMONT AV/PROSPECT AV,WB,Weekday,Local,13,30,20,260
BX36,22027,102533,21,E TREMONT AV/CROTONA AV,WB,Weekday,Local,13,43,17,281
BX36,44216,102534,22,E TREMONT AV/ARTHUR AV,WB,Weekday,Local,13,27,16,285
BX36,44232,103446,23,E TREMONT AV/3 AV,WB,Weekday,Local,13,45,23,301
BX36,48688,102446,25,E TREMONT AV/ANTHONY AV,WB,Weekday,Local,13,22,29,310
BX36,48689,102447,26,E TREMONT AV/GRAND CONCOURSE E,WB,Weekday,Local,13,59,80,293
BX36,48692,102450,27,W TREMONT AV/DAVIDSON AV,WB,Weekday,Local,13,42,52,274
BX36,48693,102451,28,W TREMONT AV/W 177 ST,WB,Weekday,Local,13,9,23,260
BX36,43537,100195,29,UNIVERSITY AV/W TREMONT AV,WB,Weekday,Local,13,43,33,260
BX36,59050,104326,30,UNIVERSITY AV/W 176 ST,WB,Weekday,Local,13,14,18,255
BX36,43541,100199,32,UNIVERSITY AV/WASHINGTON BRIDGE,WB,Weekday,Local,13,14,27,234
BX36,10921,403652,33,W 181 ST/AMSTERDAM AV,WB,Weekday,Local,13,3,54,176
BX36,43550,403653,34,W 181 ST/ST NICHOLAS AV,WB,Weekday,Local,13,1,65,108
BX36,48143,404324,35,WADSWORTH AV/W 181 ST,WB,Weekday,Local,13,1,60,48
BX36,21262,403670,36,W 179 ST/BROADWAY,WB,Weekday,Local,13,0,48,0
BX36,11105,102411,1,RANDALL AV/OLMSTEAD AV,WB,Weekday,Local,14,44,0,44
BX36,11105,102411,1,RANDALL AV/OLMSTEAD AV,WB,Weekday,Limited,14,0,0,0
BX36,11107,102413,2,PUGSLEY AV/SEWARD AV,WB,Weekday,Local,14,29,2,74
BX36,43852,104058,3,LAFAYETTE AV/PUGSLEY AV,WB,Weekday,Local,14,38,3,103
BX36,8201,102985,4,WHITE PLAINS RD/LAFAYETTE AV,WB,Weekday,Local,14,57,3,152
BX36,47393,102416,5,WHITE PLAINS RD/STORY AV,WB,Weekday,Local,14,45,4,176
BX36,47394,102417,6,WHITE PLAINS RD/BRUCKNER BL,WB,Weekday,Local,14,18,3,179
BX36,47395,102418,7,WHITE PLAINS RD/WATSON AV,WB,Weekday,Local,14,6,7,172
BX36,47396,102419,8,WHITE PLAINS RD/GLEASON AV,WB,Weekday,Local,14,7,19,154
BX36,47404,103321,9,WHITE PLAINS RD/WESTCHESTER AV,WB,Weekday,Local,14,43,37,143
BX36,8207,103322,10,WHITE PLAINS RD/WOOD AV,WB,Weekday,Local,14,10,15,137
BX36,47420,103902,11,WHITE PLAINS RD/ARCHER ST,WB,Weekday,Local,14,6,5,140
BX36,8208,103323,12,WHITE PLAINS RD/GUERLAIN ST,WB,Weekday,Local,14,14,7,148
BX36,43714,103285,13,E TREMONT AV/LELAND AV,WB,Weekday,Local,14,2,3,145
BX36,43715,103731,14,E TREMONT AV/ST LAWRENCE AV,WB,Weekday,Local,14,23,8,161
BX36,15788,101448,15,E TREMONT AV/MORRIS PK AV,WB,Weekday,Local,14,31,11,185
BX36,43717,104117,16,E TREMONT AV/DEVOE AV,WB,Weekday,Local,14,52,12,226
BX36,43718,102529,18,E TREMONT AV/BRYANT AV,WB,Weekday,Local,14,32,18,288
BX36,21268,102532,20,E TREMONT AV/PROSPECT AV,WB,Weekday,Local,14,40,28,315
BX36,22027,102533,21,E TREMONT AV/CROTONA AV,WB,Weekday,Local,14,50,22,343
BX36,44216,102534,22,E TREMONT AV/ARTHUR AV,WB,Weekday,Local,14,46,22,368
BX36,44232,103446,23,E TREMONT AV/3 AV,WB,Weekday,Local,14,72,27,397
BX36,48688,102446,25,E TREMONT AV/ANTHONY AV,WB,Weekday,Local,14,26,41,376
BX36,48689,102447,26,E TREMONT AV/GRAND CONCOURSE E,WB,Weekday,Local,14,81,92,365
BX36,48692,102450,27,W TREMONT AV/DAVIDSON AV,WB,Weekday,Local,14,67,69,357
BX36,48693,102451,28,W TREMONT AV/W 177 ST,WB,Weekday,Local,14,14,33,329
BX36,43537,100195,29,UNIVERSITY AV/W TREMONT AV,WB,Weekday,Local,14,51,47,333
BX36,59050,104326,30,UNIVERSITY AV/W 176 ST,WB,Weekday,Local,14,17,24,320
BX36,43541,100199,32,UNIVERSITY AV/WASHINGTON BRIDGE,WB,Weekday,Local,14,33,44,324
BX36,10921,403652,33,W 181 ST/AMSTERDAM AV,WB,Weekday,Local,14,3,96,273
BX36,43550,403653,34,W 181 ST/ST NICHOLAS AV,WB,Weekday,Local,14,2,118,150
BX36,48143,404324,35,WADSWORTH AV/W 181 ST,WB,Weekday,Local,14,1,88,60
BX36,21262,403670,36,W 179 ST/BROADWAY,WB,Weekday,Local,14,0,61,0
BX36,11105,102411,1,RANDALL AV/OLMSTEAD AV,WB,Weekday,Local,15,26,0,26
BX36,11105,102411,1,RANDALL AV/OLMSTEAD AV,WB,Weekday,Limited,15,26,0,26
BX36,11107,102413,2,PUGSLEY AV/SEWARD AV,WB,Weekday,Local,15,21,1,48
BX36,43718,102529,2,E TREMONT AV/BRYANT AV,WB,Weekday,Local,15,2,0,5
BX36,11107,102413,2,PUGSLEY AV/SEWARD AV,WB,Weekday,Limited,15,16,1,41
BX36,43852,104058,3,LAFAYETTE AV/PUGSLEY AV,WB,Weekday,Local,15,34,1,81
BX36,43852,104058,3,LAFAYETTE AV/PUGSLEY AV,WB,Weekday,Limited,15,20,1,58
BX36,21268,102532,4,E TREMONT AV/PROSPECT AV,WB,Weekday,Local,15,4,1,10
BX36,8201,102985,4,WHITE PLAINS RD/LAFAYETTE AV,WB,Weekday,Local,15,63,3,145
BX36,8201,102985,4,WHITE PLAINS RD/LAFAYETTE AV,WB,Weekday,Limited,15,42,2,96
BX36,47393,102416,5,WHITE PLAINS RD/STORY AV,WB,Weekday,Local,15,31,6,182
BX36,22027,102533,5,E TREMONT AV/CROTONA AV,WB,Weekday,Local,15,3,1,12
BX36,47393,102416,5,WHITE PLAINS RD/STORY AV,WB,Weekday,Limited,15,27,4,112
BX36,47394,102417,6,WHITE PLAINS RD/BRUCKNER BL,WB,Weekday,Local,15,16,4,200
BX36,44216,102534,6,E TREMONT AV/ARTHUR AV,WB,Weekday,Local,15,6,1,17
BX36,47404,103321,6,WHITE PLAINS RD/WESTCHESTER AV,WB,Weekday,Limited,15,28,42,73
BX36,47395,102418,7,WHITE PLAINS RD/WATSON AV,WB,Weekday,Local,15,7,8,205
BX36,44232,103446,7,E TREMONT AV/3 AV,WB,Weekday,Local,15,3,0,15
BX36,8208,103323,7,WHITE PLAINS RD/GUERLAIN ST,WB,Weekday,Limited,15,22,11,78
BX36,47396,102419,8,WHITE PLAINS RD/GLEASON AV,WB,Weekday,Local,15,11,30,193
BX36,48688,102446,9,E TREMONT AV/ANTHONY AV,WB,Weekday,Local,15,0,1,7
BX36,47404,103321,9,WHITE PLAINS RD/WESTCHESTER AV,WB,Weekday,Local,15,35,68,146
BX36,48689,102447,10,E TREMONT AV/GRAND CONCOURSE E,WB,Weekday,Local,15,0,1,1
BX36,8207,103322,10,WHITE PLAINS RD/WOOD AV,WB,Weekday,Local,15,8,19,139
BX36,22027,102533,10,E TREMONT AV/CROTONA AV,WB,Weekday,Limited,15,10,7,43
BX36,47420,103902,11,WHITE PLAINS RD/ARCHER ST,WB,Weekday,Local,15,9,9,138
BX36,44232,103446,11,E TREMONT AV/3 AV,WB,Weekday,Limited,15,11,3,40
BX36,8208,103323,12,WHITE PLAINS RD/GUERLAIN ST,WB,Weekday,Local,15,15,5,148
BX36,43714,103285,13,E TREMONT AV/LELAND AV,WB,Weekday,Local,15,1,4,146
BX36,48689,102447,13,E TREMONT AV/GRAND CONCOURSE E,WB,Weekday,Limited,15,1,2,8
BX36,43715,103731,14,E TREMONT AV/ST LAWRENCE AV,WB,Weekday,Local,15,31,7,170
BX36,48692,102450,14,W TREMONT AV/DAVIDSON AV,WB,Weekday,Limited,15,0,1,3
BX36,15788,101448,15,E TREMONT AV/MORRIS PK AV,WB,Weekday,Local,15,27,13,186
BX36,43717,104117,16,E TREMONT AV/DEVOE AV,WB,Weekday,Local,15,34,9,204
BX36,43718,102529,18,E TREMONT AV/BRYANT AV,WB,Weekday,Local,15,16,12,248
BX36,21268,102532,20,E TREMONT AV/PROSPECT AV,WB,Weekday,Local,15,36,22,263
BX36,22027,102533,21,E TREMONT AV/CROTONA AV,WB,Weekday,Local,15,35,22,276
BX36,44216,102534,22,E TREMONT AV/ARTHUR AV,WB,Weekday,Local,15,37,19,300
BX36,44232,103446,23,E TREMONT AV/3 AV,WB,Weekday,Local,15,58,28,344
BX36,48688,102446,25,E TREMONT AV/ANTHONY AV,WB,Weekday,Local,15,21,45,362
BX36,48689,102447,26,E TREMONT AV/GRAND CONCOURSE E,WB,Weekday,Local,15,75,104,334
BX36,48692,102450,27,W TREMONT AV/DAVIDSON AV,WB,Weekday,Local,15,55,71,323
BX36,48693,102451,28,W TREMONT AV/W 177 ST,WB,Weekday,Local,15,12,29,306
BX36,43537,100195,29,UNIVERSITY AV/W TREMONT AV,WB,Weekday,Local,15,42,55,296
BX36,59050,104326,30,UNIVERSITY AV/W 176 ST,WB,Weekday,Local,15,14,26,305
BX36,43541,100199,32,UNIVERSITY AV/WASHINGTON BRIDGE,WB,Weekday,Local,15,21,41,321
BX36,10921,403652,33,W 181 ST/AMSTERDAM AV,WB,Weekday,Local,15,3,81,256
BX36,43550,403653,34,W 181 ST/ST NICHOLAS AV,WB,Weekday,Local,15,1,101,163
BX36,48143,404324,35,WADSWORTH AV/W 181 ST,WB,Weekday,Local,15,1,88,71
BX36,21262,403670,36,W 179 ST/BROADWAY,WB,Weekday,Local,15,0,70,0
BX36,11105,102411,1,RANDALL AV/OLMSTEAD AV,WB,Weekday,Local,16,22,0,22
BX36,11105,102411,1,RANDALL AV/OLMSTEAD AV,WB,Weekday,Limited,16,17,0,17
BX36,11107,102413,2,PUGSLEY AV/SEWARD AV,WB,Weekday,Local,16,14,1,35
BX36,11107,102413,2,PUGSLEY AV/SEWARD AV,WB,Weekday,Limited,16,13,0,28
BX36,43852,104058,3,LAFAYETTE AV/PUGSLEY AV,WB,Weekday,Local,16,12,1,45
BX36,43852,104058,3,LAFAYETTE AV/PUGSLEY AV,WB,Weekday,Limited,16,7,1,33
BX36,8201,102985,4,WHITE PLAINS RD/LAFAYETTE AV,WB,Weekday,Local,16,30,1,74
BX36,8201,102985,4,WHITE PLAINS RD/LAFAYETTE AV,WB,Weekday,Limited,16,23,1,54
BX36,47393,102416,5,WHITE PLAINS RD/STORY AV,WB,Weekday,Local,16,30,3,101
BX36,22027,102533,5,E TREMONT AV/CROTONA AV,WB,Weekday,Local,16,0,0,0
BX36,47393,102416,5,WHITE PLAINS RD/STORY AV,WB,Weekday,Limited,16,25,3,78
BX36,47394,102417,6,WHITE PLAINS RD/BRUCKNER BL,WB,Weekday,Local,16,9,3,107
BX36,44216,102534,6,E TREMONT AV/ARTHUR AV,WB,Weekday,Local,16,0,0,0
BX36,47404,103321,6,WHITE PLAINS RD/WESTCHESTER AV,WB,Weekday,Limited,16,38,33,86
BX36,47395,102418,7,WHITE PLAINS RD/WATSON AV,WB,Weekday,Local,16,3,3,108
BX36,44232,103446,7,E TREMONT AV/3 AV,WB,Weekday,Local,16,0,0,1
BX36,8208,103323,7,WHITE PLAINS RD/GUERLAIN ST,WB,Weekday,Limited,16,29,9,109
BX36,47396,102419,8,WHITE PLAINS RD/GLEASON AV,WB,Weekday,Local,16,7,10,106
BX36,48688,102446,9,E TREMONT AV/ANTHONY AV,WB,Weekday,Local,16,2,1,10
BX36,47404,103321,9,WHITE PLAINS RD/WESTCHESTER AV,WB,Weekday,Local,16,26,29,99
BX36,48689,102447,10,E TREMONT AV/GRAND CONCOURSE E,WB,Weekday,Local,16,2,4,14
BX36,8207,103322,10,WHITE PLAINS RD/WOOD AV,WB,Weekday,Local,16,7,8,97
BX36,22027,102533,10,E TREMONT AV/CROTONA AV,WB,Weekday,Limited,16,40,32,186
BX36,48692,102450,11,W TREMONT AV/DAVIDSON AV,WB,Weekday,Local,16,5,5,16
BX36,47420,103902,11,WHITE PLAINS RD/ARCHER ST,WB,Weekday,Local,16,6,5,101
BX36,44232,103446,11,E TREMONT AV/3 AV,WB,Weekday,Limited,16,47,23,209
BX36,48693,102451,12,W TREMONT AV/W 177 ST,WB,Weekday,Local,16,2,2,16
BX36,8208,103323,12,WHITE PLAINS RD/GUERLAIN ST,WB,Weekday,Local,16,12,7,105
BX36,43537,100195,13,UNIVERSITY AV/W TREMONT AV,WB,Weekday,Local,16,4,2,18
BX36,43714,103285,13,E TREMONT AV/LELAND AV,WB,Weekday,Local,16,0,3,91
BX36,48689,102447,13,E TREMONT AV/GRAND CONCOURSE E,WB,Weekday,Limited,16,37,86,187
BX36,43715,103731,14,E TREMONT AV/ST LAWRENCE AV,WB,Weekday,Local,16,25,5,111
BX36,59050,104326,14,UNIVERSITY AV/W 176 ST,WB,Weekday,Local,16,1,1,18
BX36,48692,102450,14,W TREMONT AV/DAVIDSON AV,WB,Weekday,Limited,16,33,39,177
BX36,15788,101448,15,E TREMONT AV/MORRIS PK AV,WB,Weekday,Local,16,18,6,123
BX36,43537,100195,15,UNIVERSITY AV/W TREMONT AV,WB,Weekday,Limited,16,21,45,147
BX36,43541,100199,16,UNIVERSITY AV/WASHINGTON BRIDGE,WB,Weekday,Local,16,1,3,16
BX36,43717,104117,16,E TREMONT AV/DEVOE AV,WB,Weekday,Local,16,33,8,147
BX36,10921,403652,17,W 181 ST/AMSTERDAM AV,WB,Weekday,Local,16,0,5,11
BX36,10921,403652,17,W 181 ST/AMSTERDAM AV,WB,Weekday,Limited,16,1,35,93
BX36,43718,102529,18,E TREMONT AV/BRYANT AV,WB,Weekday,Local,16,18,7,197
BX36,43550,403653,18,W 181 ST/ST NICHOLAS AV,WB,Weekday,Local,16,0,4,8
BX36,43550,403653,18,W 181 ST/ST NICHOLAS AV,WB,Weekday,Limited,16,1,35,56
BX36,48143,404324,19,WADSWORTH AV/W 181 ST,WB,Weekday,Local,16,0,5,3
BX36,48143,404324,19,WADSWORTH AV/W 181 ST,WB,Weekday,Limited,16,0,31,22
BX36,21268,102532,20,E TREMONT AV/PROSPECT AV,WB,Weekday,Local,16,24,18,220
BX36,21262,403670,20,W 179 ST/BROADWAY,WB,Weekday,Local,16,0,3,0
BX36,21262,403670,20,W 179 ST/BROADWAY,WB,Weekday,Limited,16,0,21,0
BX36,22027,102533,21,E TREMONT AV/CROTONA AV,WB,Weekday,Local,16,34,17,246
BX36,44216,102534,22,E TREMONT AV/ARTHUR AV,WB,Weekday,Local,16,25,17,256
BX36,44232,103446,23,E TREMONT AV/3 AV,WB,Weekday,Local,16,50,22,290
BX36,48688,102446,25,E TREMONT AV/ANTHONY AV,WB,Weekday,Local,16,13,38,283
BX36,48689,102447,26,E TREMONT AV/GRAND CONCOURSE E,WB,Weekday,Local,16,54,79,263
BX36,48692,102450,27,W TREMONT AV/DAVIDSON AV,WB,Weekday,Local,16,39,60,250
BX36,48693,102451,28,W TREMONT AV/W 177 ST,WB,Weekday,Local,16,8,27,236
BX36,43537,100195,29,UNIVERSITY AV/W TREMONT AV,WB,Weekday,Local,16,27,47,217
BX36,59050,104326,30,UNIVERSITY AV/W 176 ST,WB,Weekday,Local,16,12,18,208
BX36,43541,100199,32,UNIVERSITY AV/WASHINGTON BRIDGE,WB,Weekday,Local,16,12,23,185
BX36,10921,403652,33,W 181 ST/AMSTERDAM AV,WB,Weekday,Local,16,2,54,148
BX36,43550,403653,34,W 181 ST/ST NICHOLAS AV,WB,Weekday,Local,16,1,64,89
BX36,48143,404324,35,WADSWORTH AV/W 181 ST,WB,Weekday,Local,16,0,52,41
BX36,21262,403670,36,W 179 ST/BROADWAY,WB,Weekday,Local,16,0,43,0
BX36,11105,102411,1,RANDALL AV/OLMSTEAD AV,WB,Weekday,Local,17,18,0,18
BX36,11105,102411,1,RANDALL AV/OLMSTEAD AV,WB,Weekday,Limited,17,15,0,15
BX36,11107,102413,2,PUGSLEY AV/SEWARD AV,WB,Weekday,Local,17,7,1,24
BX36,11107,102413,2,PUGSLEY AV/SEWARD AV,WB,Weekday,Limited,17,7,0,23
BX36,43852,104058,3,LAFAYETTE AV/PUGSLEY AV,WB,Weekday,Local,17,8,1,31
BX36,43852,104058,3,LAFAYETTE AV/PUGSLEY AV,WB,Weekday,Limited,17,5,0,31
BX36,8201,102985,4,WHITE PLAINS RD/LAFAYETTE AV,WB,Weekday,Local,17,28,1,59
BX36,8201,102985,4,WHITE PLAINS RD/LAFAYETTE AV,WB,Weekday,Limited,17,25,1,57
BX36,47393,102416,5,WHITE PLAINS RD/STORY AV,WB,Weekday,Local,17,22,1,78
BX36,47393,102416,5,WHITE PLAINS RD/STORY AV,WB,Weekday,Limited,17,27,3,83
BX36,47394,102417,6,WHITE PLAINS RD/BRUCKNER BL,WB,Weekday,Local,17,14,1,92
BX36,47404,103321,6,WHITE PLAINS RD/WESTCHESTER AV,WB,Weekday,Limited,17,34,32,82
BX36,47395,102418,7,WHITE PLAINS RD/WATSON AV,WB,Weekday,Local,17,3,1,93
BX36,8208,103323,7,WHITE PLAINS RD/GUERLAIN ST,WB,Weekday,Limited,17,41,12,112
BX36,47396,102419,8,WHITE PLAINS RD/GLEASON AV,WB,Weekday,Local,17,9,9,93
BX36,47404,103321,9,WHITE PLAINS RD/WESTCHESTER AV,WB,Weekday,Local,17,30,21,100
BX36,8207,103322,10,WHITE PLAINS RD/WOOD AV,WB,Weekday,Local,17,9,11,100
BX36,22027,102533,10,E TREMONT AV/CROTONA AV,WB,Weekday,Limited,17,25,22,147
BX36,47420,103902,11,WHITE PLAINS RD/ARCHER ST,WB,Weekday,Local,17,5,4,101
BX36,44232,103446,11,E TREMONT AV/3 AV,WB,Weekday,Limited,17,39,15,176
BX36,8208,103323,12,WHITE PLAINS RD/GUERLAIN ST,WB,Weekday,Local,17,14,6,108
BX36,43714,103285,13,E TREMONT AV/LELAND AV,WB,Weekday,Local,17,2,4,113
BX36,48689,102447,13,E TREMONT AV/GRAND CONCOURSE E,WB,Weekday,Limited,17,43,69,181
BX36,43715,103731,14,E TREMONT AV/ST LAWRENCE AV,WB,Weekday,Local,17,25,6,131
BX36,48692,102450,14,W TREMONT AV/DAVIDSON AV,WB,Weekday,Limited,17,32,42,178
BX36,15788,101448,15,E TREMONT AV/MORRIS PK AV,WB,Weekday,Local,17,26,8,149
BX36,43537,100195,15,UNIVERSITY AV/W TREMONT AV,WB,Weekday,Limited,17,15,48,139
BX36,43717,104117,16,E TREMONT AV/DEVOE AV,WB,Weekday,Local,17,33,10,170
BX36,10921,403652,17,W 181 ST/AMSTERDAM AV,WB,Weekday,Limited,17,1,33,92
BX36,43718,102529,18,E TREMONT AV/BRYANT AV,WB,Weekday,Local,17,18,12,221
BX36,43550,403653,18,W 181 ST/ST NICHOLAS AV,WB,Weekday,Limited,17,1,39,52
BX36,48143,404324,19,WADSWORTH AV/W 181 ST,WB,Weekday,Limited,17,0,27,26
BX36,21268,102532,20,E TREMONT AV/PROSPECT AV,WB,Weekday,Local,17,22,17,237
BX36,21262,403670,20,W 179 ST/BROADWAY,WB,Weekday,Limited,17,0,27,0
BX36,22027,102533,21,E TREMONT AV/CROTONA AV,WB,Weekday,Local,17,31,16,246
BX36,44216,102534,22,E TREMONT AV/ARTHUR AV,WB,Weekday,Local,17,18,17,250
BX36,44232,103446,23,E TREMONT AV/3 AV,WB,Weekday,Local,17,41,18,276
BX36,48688,102446,25,E TREMONT AV/ANTHONY AV,WB,Weekday,Local,17,15,29,260
BX36,48689,102447,26,E TREMONT AV/GRAND CONCOURSE E,WB,Weekday,Local,17,49,59,248
BX36,48692,102450,27,W TREMONT AV/DAVIDSON AV,WB,Weekday,Local,17,38,54,238
BX36,48693,102451,28,W TREMONT AV/W 177 ST,WB,Weekday,Local,17,7,28,207
BX36,43537,100195,29,UNIVERSITY AV/W TREMONT AV,WB,Weekday,Local,17,20,38,184
BX36,59050,104326,30,UNIVERSITY AV/W 176 ST,WB,Weekday,Local,17,9,17,185
BX36,43541,100199,32,UNIVERSITY AV/WASHINGTON BRIDGE,WB,Weekday,Local,17,7,24,174
BX36,10921,403652,33,W 181 ST/AMSTERDAM AV,WB,Weekday,Local,17,2,38,135
BX36,43550,403653,34,W 181 ST/ST NICHOLAS AV,WB,Weekday,Local,17,1,53,83
BX36,48143,404324,35,WADSWORTH AV/W 181 ST,WB,Weekday,Local,17,1,52,34
BX36,21262,403670,36,W 179 ST/BROADWAY,WB,Weekday,Local,17,0,34,0
BX36,11105,102411,1,RANDALL AV/OLMSTEAD AV,WB,Weekday,Local,18,17,0,17
BX36,11105,102411,1,RANDALL AV/OLMSTEAD AV,WB,Weekday,Limited,18,1,0,1
BX36,11107,102413,2,PUGSLEY AV/SEWARD AV,WB,Weekday,Local,18,8,1,26
BX36,11107,102413,2,PUGSLEY AV/SEWARD AV,WB,Weekday,Limited,18,1,0,3
BX36,43852,104058,3,LAFAYETTE AV/PUGSLEY AV,WB,Weekday,Local,18,6,1,29
BX36,43852,104058,3,LAFAYETTE AV/PUGSLEY AV,WB,Weekday,Limited,18,1,0,4
BX36,8201,102985,4,WHITE PLAINS RD/LAFAYETTE AV,WB,Weekday,Local,18,38,0,66
BX36,8201,102985,4,WHITE PLAINS RD/LAFAYETTE AV,WB,Weekday,Limited,18,6,0,11
BX36,47393,102416,5,WHITE PLAINS RD/STORY AV,WB,Weekday,Local,18,26,2,90
BX36,47393,102416,5,WHITE PLAINS RD/STORY AV,WB,Weekday,Limited,18,7,1,18
BX36,47394,102417,6,WHITE PLAINS RD/BRUCKNER BL,WB,Weekday,Local,18,8,1,97
BX36,47404,103321,6,WHITE PLAINS RD/WESTCHESTER AV,WB,Weekday,Limited,18,13,8,26
BX36,47395,102418,7,WHITE PLAINS RD/WATSON AV,WB,Weekday,Local,18,4,2,99
BX36,8208,103323,7,WHITE PLAINS RD/GUERLAIN ST,WB,Weekday,Limited,18,8,4,35
BX36,47396,102419,8,WHITE PLAINS RD/GLEASON AV,WB,Weekday,Local,18,8,10,98
BX36,47404,103321,9,WHITE PLAINS RD/WESTCHESTER AV,WB,Weekday,Local,18,33,26,103
BX36,8207,103322,10,WHITE PLAINS RD/WOOD AV,WB,Weekday,Local,18,6,6,104
BX36,22027,102533,10,E TREMONT AV/CROTONA AV,WB,Weekday,Limited,18,20,9,99
BX36,47420,103902,11,WHITE PLAINS RD/ARCHER ST,WB,Weekday,Local,18,5,4,107
BX36,44232,103446,11,E TREMONT AV/3 AV,WB,Weekday,Limited,18,24,12,117
BX36,8208,103323,12,WHITE PLAINS RD/GUERLAIN ST,WB,Weekday,Local,18,8,2,113
BX36,43714,103285,13,E TREMONT AV/LELAND AV,WB,Weekday,Local,18,1,5,110
BX36,48689,102447,13,E TREMONT AV/GRAND CONCOURSE E,WB,Weekday,Limited,18,28,42,134
BX36,43715,103731,14,E TREMONT AV/ST LAWRENCE AV,WB,Weekday,Local,18,16,6,120
BX36,48692,102450,14,W TREMONT AV/DAVIDSON AV,WB,Weekday,Limited,18,20,35,128
BX36,15788,101448,15,E TREMONT AV/MORRIS PK AV,WB,Weekday,Local,18,24,5,137
BX36,43537,100195,15,UNIVERSITY AV/W TREMONT AV,WB,Weekday,Limited,18,13,33,120
BX36,43717,104117,16,E TREMONT AV/DEVOE AV,WB,Weekday,Local,18,32,5,159
BX36,10921,403652,17,W 181 ST/AMSTERDAM AV,WB,Weekday,Limited,18,1,30,81
BX36,43718,102529,18,E TREMONT AV/BRYANT AV,WB,Weekday,Local,18,13,10,202
BX36,43550,403653,18,W 181 ST/ST NICHOLAS AV,WB,Weekday,Limited,18,0,30,49
BX36,48143,404324,19,WADSWORTH AV/W 181 ST,WB,Weekday,Limited,18,0,27,24
BX36,21268,102532,20,E TREMONT AV/PROSPECT AV,WB,Weekday,Local,18,18,17,203
BX36,21262,403670,20,W 179 ST/BROADWAY,WB,Weekday,Limited,18,0,25,0
BX36,22027,102533,21,E TREMONT AV/CROTONA AV,WB,Weekday,Local,18,19,14,200
BX36,44216,102534,22,E TREMONT AV/ARTHUR AV,WB,Weekday,Local,18,14,14,198
BX36,44232,103446,23,E TREMONT AV/3 AV,WB,Weekday,Local,18,27,14,209
BX36,48688,102446,25,E TREMONT AV/ANTHONY AV,WB,Weekday,Local,18,10,26,213
BX36,48689,102447,26,E TREMONT AV/GRAND CONCOURSE E,WB,Weekday,Local,18,46,45,216
BX36,48692,102450,27,W TREMONT AV/DAVIDSON AV,WB,Weekday,Local,18,29,43,208
BX36,48693,102451,28,W TREMONT AV/W 177 ST,WB,Weekday,Local,18,5,29,194
BX36,43537,100195,29,UNIVERSITY AV/W TREMONT AV,WB,Weekday,Local,18,16,40,181
BX36,59050,104326,30,UNIVERSITY AV/W 176 ST,WB,Weekday,Local,18,3,19,178
BX36,43541,100199,32,UNIVERSITY AV/WASHINGTON BRIDGE,WB,Weekday,Local,18,7,20,160
BX36,10921,403652,33,W 181 ST/AMSTERDAM AV,WB,Weekday,Local,18,1,35,131
BX36,43550,403653,34,W 181 ST/ST NICHOLAS AV,WB,Weekday,Local,18,1,54,85
BX36,48143,404324,35,WADSWORTH AV/W 181 ST,WB,Weekday,Local,18,1,51,35
BX36,21262,403670,36,W 179 ST/BROADWAY,WB,Weekday,Local,18,0,35,0
BX36,11105,102411,1,RANDALL AV/OLMSTEAD AV,WB,Weekday,Local,19,14,0,14
BX36,11107,102413,2,PUGSLEY AV/SEWARD AV,WB,Weekday,Local,19,10,0,23
BX36,43852,104058,3,LAFAYETTE AV/PUGSLEY AV,WB,Weekday,Local,19,7,0,31
BX36,8201,102985,4,WHITE PLAINS RD/LAFAYETTE AV,WB,Weekday,Local,19,27,0,57
BX36,47393,102416,5,WHITE PLAINS RD/STORY AV,WB,Weekday,Local,19,17,2,73
BX36,47394,102417,6,WHITE PLAINS RD/BRUCKNER BL,WB,Weekday,Local,19,6,2,77
BX36,47395,102418,7,WHITE PLAINS RD/WATSON AV,WB,Weekday,Local,19,3,2,78
BX36,47396,102419,8,WHITE PLAINS RD/GLEASON AV,WB,Weekday,Local,19,9,7,79
BX36,47404,103321,9,WHITE PLAINS RD/WESTCHESTER AV,WB,Weekday,Local,19,29,19,90
BX36,8207,103322,10,WHITE PLAINS RD/WOOD AV,WB,Weekday,Local,19,6,7,88
BX36,47420,103902,11,WHITE PLAINS RD/ARCHER ST,WB,Weekday,Local,19,5,3,90
BX36,44232,103446,11,E TREMONT AV/3 AV,WB,Weekday,Limited,19,0,0,1
BX36,8208,103323,12,WHITE PLAINS RD/GUERLAIN ST,WB,Weekday,Local,19,8,4,94
BX36,43714,103285,13,E TREMONT AV/LELAND AV,WB,Weekday,Local,19,1,5,90
BX36,48689,102447,13,E TREMONT AV/GRAND CONCOURSE E,WB,Weekday,Limited,19,0,1,1
BX36,43715,103731,14,E TREMONT AV/ST LAWRENCE AV,WB,Weekday,Local,19,13,5,97
BX36,48692,102450,14,W TREMONT AV/DAVIDSON AV,WB,Weekday,Limited,19,1,0,2
BX36,15788,101448,15,E TREMONT AV/MORRIS PK AV,WB,Weekday,Local,19,24,7,117
BX36,43537,100195,15,UNIVERSITY AV/W TREMONT AV,WB,Weekday,Limited,19,0,1,3
BX36,43717,104117,16,E TREMONT AV/DEVOE AV,WB,Weekday,Local,19,20,7,127
BX36,10921,403652,17,W 181 ST/AMSTERDAM AV,WB,Weekday,Limited,19,0,2,7
BX36,43718,102529,18,E TREMONT AV/BRYANT AV,WB,Weekday,Local,19,13,9,165
BX36,43550,403653,18,W 181 ST/ST NICHOLAS AV,WB,Weekday,Limited,19,0,4,5
BX36,48143,404324,19,WADSWORTH AV/W 181 ST,WB,Weekday,Limited,19,0,3,3
BX36,21268,102532,20,E TREMONT AV/PROSPECT AV,WB,Weekday,Local,19,16,13,182
BX36,21262,403670,20,W 179 ST/BROADWAY,WB,Weekday,Limited,19,0,4,0
BX36,22027,102533,21,E TREMONT AV/CROTONA AV,WB,Weekday,Local,19,25,15,195
BX36,44216,102534,22,E TREMONT AV/ARTHUR AV,WB,Weekday,Local,19,15,11,202
BX36,44232,103446,23,E TREMONT AV/3 AV,WB,Weekday,Local,19,26,13,216
BX36,48688,102446,25,E TREMONT AV/ANTHONY AV,WB,Weekday,Local,19,13,23,218
BX36,48689,102447,26,E TREMONT AV/GRAND CONCOURSE E,WB,Weekday,Local,19,44,52,210
BX36,48692,102450,27,W TREMONT AV/DAVIDSON AV,WB,Weekday,Local,19,34,34,212
BX36,48693,102451,28,W TREMONT AV/W 177 ST,WB,Weekday,Local,19,3,21,197
BX36,43537,100195,29,UNIVERSITY AV/W TREMONT AV,WB,Weekday,Local,19,15,35,187
BX36,59050,104326,30,UNIVERSITY AV/W 176 ST,WB,Weekday,Local,19,6,18,179
BX36,43541,100199,32,UNIVERSITY AV/WASHINGTON BRIDGE,WB,Weekday,Local,19,6,28,139
BX36,10921,403652,33,W 181 ST/AMSTERDAM AV,WB,Weekday,Local,19,1,37,108
BX36,43550,403653,34,W 181 ST/ST NICHOLAS AV,WB,Weekday,Local,19,1,39,66
BX36,48143,404324,35,WADSWORTH AV/W 181 ST,WB,Weekday,Local,19,0,39,28
BX36,21262,403670,36,W 179 ST/BROADWAY,WB,Weekday,Local,19,0,27,0
BX36,11105,102411,1,RANDALL AV/OLMSTEAD AV,WB,Weekday,Local,20,11,0,11
BX36,11107,102413,2,PUGSLEY AV/SEWARD AV,WB,Weekday,Local,20,5,0,17
BX36,43852,104058,3,LAFAYETTE AV/PUGSLEY AV,WB,Weekday,Local,20,4,0,22
BX36,8201,102985,4,WHITE PLAINS RD/LAFAYETTE AV,WB,Weekday,Local,20,13,1,34
BX36,47393,102416,5,WHITE PLAINS RD/STORY AV,WB,Weekday,Local,20,15,2,48
BX36,47394,102417,6,WHITE PLAINS RD/BRUCKNER BL,WB,Weekday,Local,20,5,1,53
BX36,47395,102418,7,WHITE PLAINS RD/WATSON AV,WB,Weekday,Local,20,2,1,54
BX36,47396,102419,8,WHITE PLAINS RD/GLEASON AV,WB,Weekday,Local,20,5,6,55
BX36,47404,103321,9,WHITE PLAINS RD/WESTCHESTER AV,WB,Weekday,Local,20,25,11,68
BX36,8207,103322,10,WHITE PLAINS RD/WOOD AV,WB,Weekday,Local,20,5,4,70
BX36,47420,103902,11,WHITE PLAINS RD/ARCHER ST,WB,Weekday,Local,20,3,3,71
BX36,8208,103323,12,WHITE PLAINS RD/GUERLAIN ST,WB,Weekday,Local,20,6,3,76
BX36,43714,103285,13,E TREMONT AV/LELAND AV,WB,Weekday,Local,20,0,1,77
BX36,43715,103731,14,E TREMONT AV/ST LAWRENCE AV,WB,Weekday,Local,20,6,4,80
BX36,15788,101448,15,E TREMONT AV/MORRIS PK AV,WB,Weekday,Local,20,9,3,88
BX36,43717,104117,16,E TREMONT AV/DEVOE AV,WB,Weekday,Local,20,23,3,111
BX36,43718,102529,18,E TREMONT AV/BRYANT AV,WB,Weekday,Local,20,9,4,151
BX36,21268,102532,20,E TREMONT AV/PROSPECT AV,WB,Weekday,Local,20,11,11,158
BX36,22027,102533,21,E TREMONT AV/CROTONA AV,WB,Weekday,Local,20,17,10,168
BX36,44216,102534,22,E TREMONT AV/ARTHUR AV,WB,Weekday,Local,20,8,12,167
BX36,44232,103446,23,E TREMONT AV/3 AV,WB,Weekday,Local,20,18,11,176
BX36,48688,102446,25,E TREMONT AV/ANTHONY AV,WB,Weekday,Local,20,9,19,178
BX36,48689,102447,26,E TREMONT AV/GRAND CONCOURSE E,WB,Weekday,Local,20,36,45,176
BX36,48692,102450,27,W TREMONT AV/DAVIDSON AV,WB,Weekday,Local,20,19,34,165
BX36,48693,102451,28,W TREMONT AV/W 177 ST,WB,Weekday,Local,20,4,22,149
BX36,43537,100195,29,UNIVERSITY AV/W TREMONT AV,WB,Weekday,Local,20,9,24,134
BX36,59050,104326,30,UNIVERSITY AV/W 176 ST,WB,Weekday,Local,20,3,16,124
BX36,43541,100199,32,UNIVERSITY AV/WASHINGTON BRIDGE,WB,Weekday,Local,20,4,22,100
BX36,10921,403652,33,W 181 ST/AMSTERDAM AV,WB,Weekday,Local,20,1,29,74
BX36,43550,403653,34,W 181 ST/ST NICHOLAS AV,WB,Weekday,Local,20,1,33,43
BX36,48143,404324,35,WADSWORTH AV/W 181 ST,WB,Weekday,Local,20,0,26,19
BX36,21262,403670,36,W 179 ST/BROADWAY,WB,Weekday,Local,20,0,21,0
BX36,11105,102411,1,RANDALL AV/OLMSTEAD AV,WB,Weekday,Local,21,9,0,9
BX36,11107,102413,2,PUGSLEY AV/SEWARD AV,WB,Weekday,Local,21,3,0,12
BX36,43852,104058,3,LAFAYETTE AV/PUGSLEY AV,WB,Weekday,Local,21,3,1,14
BX36,8201,102985,4,WHITE PLAINS RD/LAFAYETTE AV,WB,Weekday,Local,21,11,0,26
BX36,47393,102416,5,WHITE PLAINS RD/STORY AV,WB,Weekday,Local,21,8,1,33
BX36,47394,102417,6,WHITE PLAINS RD/BRUCKNER BL,WB,Weekday,Local,21,3,0,36
BX36,47395,102418,7,WHITE PLAINS RD/WATSON AV,WB,Weekday,Local,21,1,1,36
BX36,47396,102419,8,WHITE PLAINS RD/GLEASON AV,WB,Weekday,Local,21,4,6,35
BX36,47404,103321,9,WHITE PLAINS RD/WESTCHESTER AV,WB,Weekday,Local,21,14,11,39
BX36,8207,103322,10,WHITE PLAINS RD/WOOD AV,WB,Weekday,Local,21,7,6,40
BX36,47420,103902,11,WHITE PLAINS RD/ARCHER ST,WB,Weekday,Local,21,5,3,43
BX36,8208,103323,12,WHITE PLAINS RD/GUERLAIN ST,WB,Weekday,Local,21,4,2,45
BX36,43714,103285,13,E TREMONT AV/LELAND AV,WB,Weekday,Local,21,0,1,45
BX36,43715,103731,14,E TREMONT AV/ST LAWRENCE AV,WB,Weekday,Local,21,4,2,48
BX36,15788,101448,15,E TREMONT AV/MORRIS PK AV,WB,Weekday,Local,21,6,2,51
BX36,43717,104117,16,E TREMONT AV/DEVOE AV,WB,Weekday,Local,21,16,3,63
BX36,43718,102529,18,E TREMONT AV/BRYANT AV,WB,Weekday,Local,21,5,5,82
BX36,21268,102532,20,E TREMONT AV/PROSPECT AV,WB,Weekday,Local,21,7,9,85
BX36,22027,102533,21,E TREMONT AV/CROTONA AV,WB,Weekday,Local,21,11,5,92
BX36,44216,102534,22,E TREMONT AV/ARTHUR AV,WB,Weekday,Local,21,6,5,95
BX36,44232,103446,23,E TREMONT AV/3 AV,WB,Weekday,Local,21,12,5,101
BX36,48688,102446,25,E TREMONT AV/ANTHONY AV,WB,Weekday,Local,21,5,9,111
BX36,48689,102447,26,E TREMONT AV/GRAND CONCOURSE E,WB,Weekday,Local,21,17,27,107
BX36,48692,102450,27,W TREMONT AV/DAVIDSON AV,WB,Weekday,Local,21,15,19,107
BX36,48693,102451,28,W TREMONT AV/W 177 ST,WB,Weekday,Local,21,3,9,98
BX36,43537,100195,29,UNIVERSITY AV/W TREMONT AV,WB,Weekday,Local,21,9,20,84
BX36,59050,104326,30,UNIVERSITY AV/W 176 ST,WB,Weekday,Local,21,2,8,78
BX36,43541,100199,32,UNIVERSITY AV/WASHINGTON BRIDGE,WB,Weekday,Local,21,3,7,70
BX36,10921,403652,33,W 181 ST/AMSTERDAM AV,WB,Weekday,Local,21,0,17,55
BX36,43550,403653,34,W 181 ST/ST NICHOLAS AV,WB,Weekday,Local,21,1,21,36
BX36,48143,404324,35,WADSWORTH AV/W 181 ST,WB,Weekday,Local,21,0,15,20
BX36,21262,403670,36,W 179 ST/BROADWAY,WB,Weekday,Local,21,0,20,0
BX36,11105,102411,1,RANDALL AV/OLMSTEAD AV,WB,Weekday,Local,22,6,0,6
BX36,11107,102413,2,PUGSLEY AV/SEWARD AV,WB,Weekday,Local,22,2,0,7
BX36,43852,104058,3,LAFAYETTE AV/PUGSLEY AV,WB,Weekday,Local,22,1,0,9
BX36,8201,102985,4,WHITE PLAINS RD/LAFAYETTE AV,WB,Weekday,Local,22,6,1,15
BX36,47393,102416,5,WHITE PLAINS RD/STORY AV,WB,Weekday,Local,22,4,1,18
BX36,47394,102417,6,WHITE PLAINS RD/BRUCKNER BL,WB,Weekday,Local,22,3,0,22
BX36,47395,102418,7,WHITE PLAINS RD/WATSON AV,WB,Weekday,Local,22,0,1,22
BX36,47396,102419,8,WHITE PLAINS RD/GLEASON AV,WB,Weekday,Local,22,2,2,21
BX36,47404,103321,9,WHITE PLAINS RD/WESTCHESTER AV,WB,Weekday,Local,22,9,4,26
BX36,8207,103322,10,WHITE PLAINS RD/WOOD AV,WB,Weekday,Local,22,2,2,26
BX36,47420,103902,11,WHITE PLAINS RD/ARCHER ST,WB,Weekday,Local,22,2,1,27
BX36,8208,103323,12,WHITE PLAINS RD/GUERLAIN ST,WB,Weekday,Local,22,3,2,28
BX36,43714,103285,13,E TREMONT AV/LELAND AV,WB,Weekday,Local,22,0,1,28
BX36,43715,103731,14,E TREMONT AV/ST LAWRENCE AV,WB,Weekday,Local,22,5,1,32
BX36,15788,101448,15,E TREMONT AV/MORRIS PK AV,WB,Weekday,Local,22,7,2,38
BX36,43717,104117,16,E TREMONT AV/DEVOE AV,WB,Weekday,Local,22,6,2,42
BX36,43718,102529,18,E TREMONT AV/BRYANT AV,WB,Weekday,Local,22,2,2,49
BX36,21268,102532,20,E TREMONT AV/PROSPECT AV,WB,Weekday,Local,22,4,3,52
BX36,22027,102533,21,E TREMONT AV/CROTONA AV,WB,Weekday,Local,22,6,4,55
BX36,44216,102534,22,E TREMONT AV/ARTHUR AV,WB,Weekday,Local,22,2,2,55
BX36,44232,103446,23,E TREMONT AV/3 AV,WB,Weekday,Local,22,7,2,63
BX36,48688,102446,25,E TREMONT AV/ANTHONY AV,WB,Weekday,Local,22,7,8,72
BX36,48689,102447,26,E TREMONT AV/GRAND CONCOURSE E,WB,Weekday,Local,22,10,13,71
BX36,48692,102450,27,W TREMONT AV/DAVIDSON AV,WB,Weekday,Local,22,9,15,64
BX36,48693,102451,28,W TREMONT AV/W 177 ST,WB,Weekday,Local,22,2,7,65
BX36,43537,100195,29,UNIVERSITY AV/W TREMONT AV,WB,Weekday,Local,22,6,11,64
BX36,59050,104326,30,UNIVERSITY AV/W 176 ST,WB,Weekday,Local,22,1,6,61
BX36,43541,100199,32,UNIVERSITY AV/WASHINGTON BRIDGE,WB,Weekday,Local,22,2,6,54
BX36,10921,403652,33,W 181 ST/AMSTERDAM AV,WB,Weekday,Local,22,0,9,47
BX36,43550,403653,34,W 181 ST/ST NICHOLAS AV,WB,Weekday,Local,22,0,17,30
BX36,48143,404324,35,WADSWORTH AV/W 181 ST,WB,Weekday,Local,22,0,15,15
BX36,21262,403670,36,W 179 ST/BROADWAY,WB,Weekday,Local,22,0,16,0
BX36,11105,102411,1,RANDALL AV/OLMSTEAD AV,WB,Weekday,Local,23,4,0,4
BX36,11107,102413,2,PUGSLEY AV/SEWARD AV,WB,Weekday,Local,23,1,0,4
BX36,43852,104058,3,LAFAYETTE AV/PUGSLEY AV,WB,Weekday,Local,23,0,0,4
BX36,8201,102985,4,WHITE PLAINS RD/LAFAYETTE AV,WB,Weekday,Local,23,2,0,6
BX36,47393,102416,5,WHITE PLAINS RD/STORY AV,WB,Weekday,Local,23,2,0,8
BX36,47394,102417,6,WHITE PLAINS RD/BRUCKNER BL,WB,Weekday,Local,23,3,0,12
BX36,47395,102418,7,WHITE PLAINS RD/WATSON AV,WB,Weekday,Local,23,0,0,12
BX36,47396,102419,8,WHITE PLAINS RD/GLEASON AV,WB,Weekday,Local,23,2,1,14
BX36,47404,103321,9,WHITE PLAINS RD/WESTCHESTER AV,WB,Weekday,Local,23,6,3,17
BX36,8207,103322,10,WHITE PLAINS RD/WOOD AV,WB,Weekday,Local,23,0,2,15
BX36,47420,103902,11,WHITE PLAINS RD/ARCHER ST,WB,Weekday,Local,23,1,2,14
BX36,8208,103323,12,WHITE PLAINS RD/GUERLAIN ST,WB,Weekday,Local,23,1,0,15
BX36,43714,103285,13,E TREMONT AV/LELAND AV,WB,Weekday,Local,23,0,1,15
BX36,43715,103731,14,E TREMONT AV/ST LAWRENCE AV,WB,Weekday,Local,23,3,0,18
BX36,15788,101448,15,E TREMONT AV/MORRIS PK AV,WB,Weekday,Local,23,5,1,23
BX36,43717,104117,16,E TREMONT AV/DEVOE AV,WB,Weekday,Local,23,8,2,30
BX36,43718,102529,18,E TREMONT AV/BRYANT AV,WB,Weekday,Local,23,2,2,38
BX36,21268,102532,20,E TREMONT AV/PROSPECT AV,WB,Weekday,Local,23,1,2,36
BX36,22027,102533,21,E TREMONT AV/CROTONA AV,WB,Weekday,Local,23,3,1,39
BX36,44216,102534,22,E TREMONT AV/ARTHUR AV,WB,Weekday,Local,23,3,3,39
BX36,44232,103446,23,E TREMONT AV/3 AV,WB,Weekday,Local,23,4,3,41
BX36,48688,102446,25,E TREMONT AV/ANTHONY AV,WB,Weekday,Local,23,2,6,42
BX36,48689,102447,26,E TREMONT AV/GRAND CONCOURSE E,WB,Weekday,Local,23,8,11,40
BX36,48692,102450,27,W TREMONT AV/DAVIDSON AV,WB,Weekday,Local,23,11,12,41
BX36,48693,102451,28,W TREMONT AV/W 177 ST,WB,Weekday,Local,23,1,4,40
BX36,43537,100195,29,UNIVERSITY AV/W TREMONT AV,WB,Weekday,Local,23,3,10,31
BX36,59050,104326,30,UNIVERSITY AV/W 176 ST,WB,Weekday,Local,23,1,4,30
BX36,43541,100199,32,UNIVERSITY AV/WASHINGTON BRIDGE,WB,Weekday,Local,23,1,4,24
BX36,10921,403652,33,W 181 ST/AMSTERDAM AV,WB,Weekday,Local,23,0,7,20
BX36,43550,403653,34,W 181 ST/ST NICHOLAS AV,WB,Weekday,Local,23,0,6,15
BX36,48143,404324,35,WADSWORTH AV/W 181 ST,WB,Weekday,Local,23,0,11,5
BX36,21262,403670,36,W 179 ST/BROADWAY,WB,Weekday,Local,23,0,5,0
